"Name","ID","State","Network","County","Elevation_ft","Latitude","Longitude","HUC","Date_of_Data","Date_Report_Created","Value_inches","Percent_NRCS_1991_2020_Average","Percent_NRCS_1991_2020_Median","Percent_of_POR_Average","Percent_of_POR_Median","Percent_of_Water_Year_Peak","Percent_NRCS_1991_2020_Average_Water_Year_Peak","Percent_NRCS_1991_2020_Median_Water_Year_Peak","Percent_of_POR_Average_Water_Year_Peak","Percent_of_POR_Median_Water_Year_Peak","POR_Median_Departure_inches","Percentile_POR","Maximum_Rank_POR","Minimum_Rank_POR","Records_POR","NRCS_1991_2020_Average_inches","NRCS_1991_2020_Median_inches","POR_Average_inches","POR_Median_inches","Minimum_POR_inches","Maximum_POR_inches","Year_of_Minimum_POR","Year_of_Maximum_POR","Number_of_Observations_POR"
"Adin Mtn","301	","California","SNOTEL","Modoc","6170","41.23583","-120.79192","180200021403	","November 19, 2025, end of day ","11-20-2025, 10:19 PM PST","0.2","18","33","17","33","15","1","2","1","1","-0.4","32","29","12",,"1.1","0.6","1.2","0.6","0","5.4","2018, 2019, 2021, more","1994","42"
"Agnew Pass","AGP	","California","Cooperator Snow Sensors","Madera","9300","37.724","-119.143","180400060401	","November 19, 2025, end of day ","11-20-2025, 10:19 PM PST",,,,,,,,,,,,,,,,"2.7","2.2","2.6","2.1","0","10","2006, 2013, 2018, more","2004","27"
"Agua Canyon","907	","Utah","SNOTEL","Kane","8890","37.52217","-112.27118","160300020301	","November 19, 2025, end of day ","11-20-2025, 10:19 PM PST","1.7","340",,"340",,"100","17","19","17","19","1.7","87","5","27",,"0.5","0","0.5","0","0","2.3","2020, 2021, 2024, more","2000","32"
"Aiken Lake","4A30P	","British Columbia","Cooperator Snow Sensors","	","3481","56.43333","-125.73333","	","November 19, 2025, end of day ","11-20-2025, 10:19 PM PST","2.9","132","153","138","145","100","27","26","27","26","0.9","87","6","33",,"2.2","1.9","2.1","2","0","5.4","2001","1997","39"
"Akima Pass #2","05AD803	","Alberta","Cooperator Snow Sensors","	","5777","49.02728","-114.05294","	","November 19, 2025, end of day ","11-20-2025, 10:19 PM PST",,,,,,,,,,,,,,,,,,"1.6","1.6","1.6","1.6","2024","2024","1"
"Albro Lake","916	","Montana","SNOTEL","Madison","8500","45.59723","-111.95902","100200050701	","November 19, 2025, end of day ","11-20-2025, 10:19 PM PST","2.2","54","58","55","58","100","10","10","10","10","-1.6","21","24","7",,"4.1","3.8","4","3.8","0.8","10","2016","2013","30"
"Alexander Lake","1267	","Alaska","SNOTEL","Matanuska-Susitna","170","61.7493","-150.89199","190205051106	","November 19, 2025, end of day ","11-20-2025, 10:19 PM PST","0.9",,,"56","64","100",,,"10","10","-0.5","27","9","4",,,,"1.6","1.4","0","3.3","2014","2022","12"
"Alpha","ALP	","California","Cooperator Snow Sensors","El Dorado","7560","38.805","-120.215","180201290204	","November 19, 2025, end of day ","11-20-2025, 10:19 PM PST","1.3","93","162","65","81","100","4","4","3","4","-0.3","45","32","25",,"1.4","0.8","2","1.6","0","8","2019, 2021, 2023, more","1994","57"
"Alpine Meadows","908	","Washington","SNOTEL","King","3500","47.77957","-121.69847","171100100501	","November 19, 2025, end of day ","11-20-2025, 10:19 PM PST","0.4","12","22","12","22","27","1","1","1","1","-1.4","26","24","9",,"3.4","1.8","3.2","1.8","0","14.9","2014, 2018, 2019, more","1994","32"
"Alta Lakes","1344	","Colorado","SNOTEL","San Miguel","11290","37.88929","-107.84484","140300030103	","November 19, 2025, end of day ","11-20-2025, 10:19 PM PST","1.5",,,"100","100","100",,,,,"0",,"1","1",,,,"1.5","1.5","1.5","1.5","2025","2025","1"
"American Creek","1189	","Alaska","SNOTEL","Southeast Fairbanks","1020","64.78969","-141.23376","190705050504	","November 19, 2025, end of day ","11-20-2025, 10:19 PM PST",,,,,,,,,,,,,,,,,,"1.3","1","0.3","2.4","2013, 2016","2019","14"
"Anchor River Divide","1062	","Alaska","SNOTEL","Kenai Peninsula","1650","59.8608","-151.31494","190203010701	","November 19, 2025, end of day ","11-20-2025, 10:19 PM PST","2.8","175","165","147","140","100","22","23","21","22","0.8","82","7","28",,"1.6","1.7","1.9","2","0","4.1","2013, 2014, 2018","2024","35"
"Anchorage Hillside","1070	","Alaska","SNOTEL","Anchorage","1910","61.11315","-149.68345","190204010601	","November 19, 2025, end of day ","11-20-2025, 10:19 PM PST","1.5","100","125","75","88","100","15","14","14","14","-0.2","45","12","10",,"1.5","1.2","2","1.7","0","4.7","2014, 2016, 2018","2020","21"
"Aneroid Lake #2","302	","Oregon","SNOTEL","Wallowa","7430","45.21332","-117.19255","170601050101	","November 19, 2025, end of day ","11-20-2025, 10:19 PM PST","0.4","16","18","15","17","67","1","2","1","2","-2","9","40","4",,"2.5","2.2","2.6","2.4","0","7.7","1982","1984","44"
"Aniak","2065	","Alaska","SNOTEL","Bethel","90","61.58337","-159.57708","190305020504	","November 19, 2025, end of day ","11-20-2025, 10:19 PM PST","1",,,"100","100","100",,,"29","29","0","100","1","2","2nd Lowest",,,"1","1","0.9","1","2024","2025","2"
"Annie Springs","1000	","Oregon","SNOTEL","Klamath","6020","42.87007","-122.16518","180102030101	","November 19, 2025, end of day ","11-20-2025, 10:19 PM PST","0.2","8","11","7","11","13","0","0","0","0","-1.6","12","23","4",,"2.6","1.8","3","1.8","0","11.6","2001, 2018, 2019","2024","26"
"Apishapa","303	","Colorado","SNOTEL","Huerfano","10000","37.33067","-105.06766","110200060406	","November 19, 2025, end of day ","11-20-2025, 10:19 PM PST","0","0","0","0","0",,"0","0","0","0","-0.4","36","30","1","Lowest","0.7","0.5","0.7","0.4","0","2.8","2019, 2020, 2025, more","1991","46"
"Arapaho Ridge","1030	","Colorado","SNOTEL","Grand","10960","40.35098","-106.38141","140100010604	","November 19, 2025, end of day ","11-20-2025, 10:19 PM PST","1","21","20","23","22","100","4","4","4","4","-3.6","0","24","1","Lowest","4.7","4.9","4.3","4.6","1","7.3","2025","2005","24"
"Arbuckle Mtn","304	","Oregon","SNOTEL","Morrow","5770","45.19085","-119.25392","170702020604	","November 19, 2025, end of day ","11-20-2025, 10:19 PM PST","0","0","0","0","0","0","0","0","0","0","-1.6","11","43","1","Lowest","1.5","1.3","1.8","1.6","0","6","2018, 2019, 2025, more","1996","48"
"Atlanta Summit","306	","Idaho","SNOTEL","Elmore","7570","43.7569","-115.23907","170501110204	","November 19, 2025, end of day ","11-20-2025, 10:19 PM PST","0.4","14","14","12","12","19","1","1","1","1","-2.9","5","43","3",,"2.9","2.8","3.3","3.3","0","9.2","1993","1984","45"
"Atwater","1308	","Utah","SNOTEL","Salt Lake","8750","40.59124","-111.63775","160202040202	","November 19, 2025, end of day ","11-20-2025, 10:19 PM PST","0",,,"0","0","0",,,"0","0","-3.6","0","4","1","Lowest",,,"4.4","3.6","0","10.5","2025","2022","4"
"Azure","1E08P	","British Columbia","Cooperator Snow Sensors","	","5331","52.58333","-119.71667","	","November 19, 2025, end of day ","11-20-2025, 10:19 PM PST","10.8","93","99","96","99","100","21","21","21","21","-0.1","43","17","12",,"11.6","10.9","11.3","10.9","5.7","17.9","2018","2007","29"
"Badger Pass","307	","Montana","SNOTEL","Pondera","6870","48.13091","-113.02311","100302010201	","November 19, 2025, end of day ","11-20-2025, 10:19 PM PST","4.3","90","108","86","108","100","12","13","12","13","0.3","54","22","26",,"4.8","4","5","4","0.3","15","1999","1985","47"
"Baker Butte","308	","Arizona","SNOTEL","Coconino","7360","34.45654","-111.40651","150602030206	","November 19, 2025, end of day ","11-20-2025, 10:19 PM PST","0.4","200",,"200",,"100","6","7","6","6","0.4","91","5","41",,"0.2","0","0.2","0","0","2.7","2021, 2022, 2023, more","1993","46"
"Baker Butte Smt","1140	","Arizona","SNOTEL","Coconino","7720","34.45552","-111.38262","150602030103	","November 19, 2025, end of day ","11-20-2025, 10:19 PM PST","0.9","225",,"225",,"100","7","7","7","7","0.9","88","3","15",,"0.4","0","0.4","0","0","1.8","2020, 2021, 2023, more","2011, 2015","17"
"Bald Mtn.","309	","Wyoming","SNOTEL","Big Horn","9360","44.80061","-107.84428","100800100501	","November 19, 2025, end of day ","11-20-2025, 10:19 PM PST","3.4","74","71","76","74","100","15","15","15","15","-1.2","23","37","11",,"4.6","4.8","4.5","4.6","1.4","7.5","2015","2019","48"
"Baldy","310	","Arizona","SNOTEL","Apache","9210","33.97845","-109.50357","150200010203	","November 19, 2025, end of day ","11-20-2025, 10:19 PM PST","0.1","20",,"25",,"100","1","1","1","1","0.1","62","18","27",,"0.5","0","0.4","0","0","3.6","2022, 2023, 2024, more","1986, 2000","46"
"Banfield Mountain","311	","Montana","SNOTEL","Lincoln","5580","48.5712","-115.44573","170101011202	","November 19, 2025, end of day ","11-20-2025, 10:19 PM PST","0.3","14","14","12","14","16","2","2","2","2","-1.9","7","54","3",,"2.1","2.1","2.4","2.2","0","6","2008","1984","58"
"Banner Summit","312	","Idaho","SNOTEL","Boise","7040","44.30342","-115.23447","170501200202	","November 19, 2025, end of day ","11-20-2025, 10:19 PM PST","0.1","4","4","3","4","8","0","0","0","0","-2.7","2","45","2","2nd Lowest","2.6","2.3","2.9","2.8","0","7.7","1993","1984","46"
"Bar M","1212	","Arizona","SNOTEL","Coconino","6380","34.86142","-111.60497","150602020601	","November 19, 2025, end of day ","11-20-2025, 10:19 PM PST","0.3",,,,,"75",,,"8","8","0.3","100","1","14","Highest",,,"0","0","0","0.3","2021, 2023, 2024, more","2025","14"
"Barker Lakes","313	","Montana","SNOTEL","Deer Lodge","8250","46.09713","-113.13038","170102010304	","November 19, 2025, end of day ","11-20-2025, 10:19 PM PST","1.3","38","43","39","45","93","7","7","7","8","-1.6","13","41","6",,"3.4","3","3.3","2.9","0.5","8.3","2016","2009","47"
"Barkerville","1A03P	","British Columbia","Cooperator Snow Sensors","	","4865","53.05","-121.48333","	","November 19, 2025, end of day ","11-20-2025, 10:19 PM PST","0.7","33","33","30","33","100","5","5","5","5","-1.4","6","47","4",,"2.1","2.1","2.3","2.1","0","13.3","1976","1985","50"
"Barnes Creek","2B06P	","British Columbia","Cooperator Snow Sensors","	","5233","50.06667","-118.35","170200010305	","November 19, 2025, end of day ","11-20-2025, 10:19 PM PST","2","51","51","53","51","95","8","8","8","8","-1.9","12","29","4",,"3.9","3.9","3.8","3.9","0.4","7.5","2016","1995","33"
"Base Camp","314	","Wyoming","SNOTEL","Teton","7040","43.94019","-110.44544","170401010304	","November 19, 2025, end of day ","11-20-2025, 10:19 PM PST","0","0","0","0","0","0","0","0","0","0","-2","0","46","1","Lowest","2.2","2.2","2.3","2","0","5.6","2025","2017","46"
"Basin Creek","315	","Montana","SNOTEL","Silver Bow","7120","45.79737","-112.52047","170102010201	","November 19, 2025, end of day ","11-20-2025, 10:19 PM PST","0.1","6","6","6","7","33","1","1","1","1","-1.3","2","45","2","2nd Lowest","1.8","1.6","1.6","1.4","0","4.3","1987","1994","46"
"Bassoo Peak","1190	","Montana","SNOTEL","Sanders","5130","47.85562","-114.75841","170102120105	","November 19, 2025, end of day ","11-20-2025, 10:19 PM PST","0",,,"0","0","0",,,"0","0","-0.3","33","3","1","Lowest",,,"0.4","0.3","0","0.9","2023, 2025","2022","4"
"Bateman","316	","New Mexico","SNOTEL","Rio Arriba","9230","36.51174","-106.31543","130201020901	","November 19, 2025, end of day ","11-20-2025, 10:19 PM PST","0.4","31","33","31","31","100","3","4","3","3","-0.9","28","34","13",,"1.3","1.2","1.3","1.3","0","3.9","2007, 2017, 2021, more","1994","47"
"Battle Mountain","317	","Wyoming","SNOTEL","Carbon","7460","41.05402","-107.26674","140500030109	","November 19, 2025, end of day ","11-20-2025, 10:19 PM PST","0.3","25","30","27","33","50","2","2","2","2","-0.6","28","30","12",,"1.2","1","1.1","0.9","0","4.6","2007, 2016, 2021, more","1996","41"
"Beach Meadows","BCH	","California","Cooperator Snow Sensors","Tulare","7750","36.127","-118.293","180300010403	","November 19, 2025, end of day ","11-20-2025, 10:19 PM PST","1.7","567",,"425",,"94","15","16","14","18","1.7","94","3","35",,"0.3","0","0.4","0","0","2.5","2018, 2019, 2021, more","2022","37"
"Beagle Springs","318	","Montana","SNOTEL","Beaverhead","8880","44.47147","-112.98191","100200010501	","November 19, 2025, end of day ","11-20-2025, 10:19 PM PST","0","0","0","0","0","0","0","0","0","0","-1.5","2","47","1","Lowest","1.7","1.8","1.6","1.5","0","4.6","1999, 2025","2009","48"
"Bear Basin","319	","Idaho","SNOTEL","Adams","5350","44.95222","-116.14293","170602100104	","November 19, 2025, end of day ","11-20-2025, 10:19 PM PST","0.3","23","30","20","25","43","2","2","2","2","-0.9","16","38","7",,"1.3","1","1.5","1.2","0","4.4","2019, 2021, 2023, more","1982","45"
"Bear Canyon","320	","Idaho","SNOTEL","Custer","7920","43.74367","-113.93797","170402180101	","November 19, 2025, end of day ","11-20-2025, 10:19 PM PST","1.2","63","60","60","57","67","8","8","8","8","-0.9","26","33","11",,"1.9","2","2","2.1","0.1","4.4","1986","1984","44"
"Bear Creek","321	","Nevada","SNOTEL","Elko","8090","41.83391","-115.45278","170501020301	","November 19, 2025, end of day ","11-20-2025, 10:19 PM PST","0","0","0","0","0","0","0","0","0","0","-1.8","13","41","1","Lowest","2","2","1.9","1.8","0","5.4","2018, 2019, 2025, more","1984","47"
"Bear Grass","1166	","Oregon","SNOTEL","Linn","4720","44.3253","-122.0938","170900040203	","November 19, 2025, end of day ","11-20-2025, 10:19 PM PST","0.1",,,"3","7","5",,,"0","0","-1.4","14","13","3",,,,"3.3","1.5","0","12.3","2018, 2019","2024","15"
"Bear Lake","322	","Colorado","SNOTEL","Larimer","9490","40.31176","-105.6467","101900060201	","November 19, 2025, end of day ","11-20-2025, 10:19 PM PST","0.5","22","23","23","25","100","2","3","2","3","-1.5","9","42","5",,"2.3","2.2","2.2","2","0","5","1999, 2007","2006","46"
"Bear Mountain","323	","Idaho","SNOTEL","Bonner","5460","48.30583","-116.07444","170102131202	","November 19, 2025, end of day ","11-20-2025, 10:19 PM PST","3.3","49","46","46","46","61","6","6","6","6","-3.9","18","38","9",,"6.8","7.2","7.2","7.2","0.7","23.1","1999","1984","46"
"Bear River","1061	","Colorado","SNOTEL","Routt","9100","40.06152","-107.00948","140500010102	","November 19, 2025, end of day ","11-20-2025, 10:19 PM PST","0.3","18","17","18","17","100","2","2","3","2","-1.5","5","21","2","2nd Lowest","1.7","1.8","1.7","1.8","0","3.1","2016","2017","22"
"Bear River RS","992	","Utah","SNOTEL","Summit","8510","40.8852","-110.8277","160101010106	","November 19, 2025, end of day ","11-20-2025, 10:19 PM PST","0","0","0","0","0","0","0","0","0","0","-1","7","15","1","Lowest","0.9","1","0.9","1","0","1.9","2019, 2025","2022","16"
"Bear Saddle","324	","Idaho","SNOTEL","Washington","6170","44.60533","-116.98097","170501241001	","November 19, 2025, end of day ","11-20-2025, 10:19 PM PST","0","0","0","0","0","0","0","0","0","0","-1.3","11","40","1","Lowest","1.5","1.2","1.9","1.3","0","6.2","2019, 2023, 2025, more","1994","45"
"Bear Trap Meadow","325	","Wyoming","SNOTEL","Johnson","8200","43.88743","-107.06135","100902010205	","November 19, 2025, end of day ","11-20-2025, 10:19 PM PST","0.4","31","33","33","33","40","5","5","6","6","-0.8","16","39","3",,"1.3","1.2","1.2","1.2","0","3","2023","2019","46"
"Beartooth Lake","326	","Wyoming","SNOTEL","Park","9360","44.94307","-109.56743","100700060206	","November 19, 2025, end of day ","11-20-2025, 10:19 PM PST","3.7","71","77","76","80","97","14","15","14","15","-0.9","24","35","11",,"5.2","4.8","4.9","4.6","0","11","1987","2017","46"
"Beartown","327	","Colorado","SNOTEL","San Juan","11600","37.71433","-107.5124","130100010104	","November 19, 2025, end of day ","11-20-2025, 10:19 PM PST","1.6","40","47","38","46","84","7","7","6","7","-1.9","26","33","10",,"4","3.4","4.2","3.5","0","11.9","1999, 2001, 2007, more","1996","44"
"Beaver Ck Village","1041	","Colorado","SNOTEL","Eagle","8530","39.59871","-106.51113","140100030301	","November 19, 2025, end of day ","11-20-2025, 10:19 PM PST","0.4","31","27","31","31","100","3","3","3","3","-0.9","14","20","4",,"1.3","1.5","1.3","1.3","0","2.4","2016","2022, 2024","23"
"Beaver Creek","328	","Montana","SNOTEL","Gallatin","7820","44.94966","-111.35852","100200070402	","November 19, 2025, end of day ","11-20-2025, 10:19 PM PST","0.2","7","7","7","7","18","1","1","1","1","-2.6","3","58","1","Lowest","2.9","2.9","2.9","2.8","0.2","6.6","1999, 2016, 2025","1991","60"
"Beaver Dams","329	","Utah","SNOTEL","Sanpete","7970","39.13683","-111.55813","160300040402	","November 19, 2025, end of day ","11-20-2025, 10:19 PM PST","0.3","43","60","38","50","50","3","3","3","3","-0.3","38","29","16",,"0.7","0.5","0.8","0.6","0","3.3","2018, 2019, 2021, more","1984","46"
"Beaver Divide","330	","Utah","SNOTEL","Summit","8230","40.61233","-111.09782","160202030105	","November 19, 2025, end of day ","11-20-2025, 10:19 PM PST","0.3","27","25","25","25","100","3","3","2","3","-0.9","19","39","10",,"1.1","1.2","1.2","1.2","0","3.7","2007, 2018, 2021, more","1996","48"
"Beaver Head","902	","Arizona","SNOTEL","Greenlee","8070","33.69115","-109.21685","150601010107	","November 19, 2025, end of day ","11-20-2025, 10:19 PM PST","0.2","200",,"200",,"100","5","6","5","6","0.2","87","5","27",,"0.1","0","0.1","0","0","0.8","2022, 2023, 2024, more","1996","32"
"Beaver Pass","990	","Washington","SNOTEL","Whatcom","3630","48.8793","-121.2555","171100050605	","November 19, 2025, end of day ","11-20-2025, 10:19 PM PST","0","0","0","0","0","0","0","0","0","0","-2.4","12","22","1","Lowest","3.9","2.4","3.8","2.4","0","12.8","2014, 2018, 2025, more","2009","25"
"Beaver Reservoir","331	","Oregon","SNOTEL","Union","5140","45.14532","-118.219","170601040301	","November 19, 2025, end of day ","11-20-2025, 10:19 PM PST","0","0","0","0","0","0","0","0","0","0","-0.6","20","37","1","Lowest","0.7","0.6","0.9","0.6","0","2.7","2016, 2018, 2025, more","1984, 2011","46"
"Beaver Spring","1143	","Arizona","SNOTEL","Apache","9240","36.32671","-109.05702","140802040401	","November 19, 2025, end of day ","11-20-2025, 10:19 PM PST","0.2","29","200","33","200","100","2","2","2","2","0.1","56","8","10",,"0.7","0.1","0.6","0.1","0","3.9","2020, 2021, 2024, more","2015","17"
"Ben Lomond Peak","332	","Utah","SNOTEL","Weber","7700","41.37603","-111.94405","160201020302	","November 19, 2025, end of day ","11-20-2025, 10:19 PM PST","2.1","75","91","66","84","100","5","6","5","6","-0.4","45","27","22",,"2.8","2.3","3.2","2.5","0","15.7","1995, 2001, 2007, more","1984","48"
"Ben Lomond Trail","333	","Utah","SNOTEL","Weber","5980","41.38291","-111.92103","160201020302	","November 19, 2025, end of day ","11-20-2025, 10:19 PM PST","0","0","0","0","0","0","0","0","0","0","-0.8","29","33","1","Lowest","1.1","0.5","1.5","0.8","0","9.4","2018, 2019, 2025, more","1984","46"
"Berry Creek","334	","Nevada","SNOTEL","White Pine","9350","39.31917","-114.62278","160600081301	","November 19, 2025, end of day ","11-20-2025, 10:19 PM PST","0.3","19","30","18","20","50",,,"2","2","-1.2","16","39","6",,"1.6","1","1.7","1.5","0","11.2","2007, 2018, 2019, more","2004","46"
"Berthoud Summit","335	","Colorado","SNOTEL","Grand","11300","39.80364","-105.77786","140100010202	","November 19, 2025, end of day ","11-20-2025, 10:19 PM PST","1","34","36","33","36","100","4","4","4","4","-1.8","9","44","4",,"2.9","2.8","3","2.8","0.5","6.5","1999","1985","48"
"Bettles Field","1182	","Alaska","SNOTEL","Yukon-Koyukuk","640","66.91467","-151.53318","190901012604	","November 19, 2025, end of day ","11-20-2025, 10:19 PM PST","1.2","71","80","67","75","100","16","18","16","17","-0.4","27","34","13",,"1.7","1.5","1.8","1.6","0","4.1","2012, 2014","1994","46"
"Bevans Cabin","1214	","Utah","SNOTEL","Tooele","6470","40.46182","-112.25233","160203040401	","November 19, 2025, end of day ","11-20-2025, 10:19 PM PST","0",,,"0",,,,,"0","0","0","46","8","1","Lowest",,,"0.5","0","0","2.4","2020, 2022, 2025, more","2024","14"
"Big Bend","336	","Nevada","SNOTEL","Elko","6890","41.76168","-115.6931","170501040104	","November 19, 2025, end of day ","11-20-2025, 10:19 PM PST","0","0","0","0","0","0","0","0","0","0","-0.2","36","31","1","Lowest","0.4","0.2","0.5","0.2","0","2.1","2018, 2019, 2025, more","2015","48"
"Big Creek Sum","337	","Nevada","SNOTEL","Lander","8710","39.29148","-117.11506","160401070303	","November 19, 2025, end of day ","11-20-2025, 10:19 PM PST","0.1","8","12","7","12","10","1","1","0","1","-0.7","20","37","9",,"1.3","0.8","1.5","0.8","0","6.2","2016, 2018, 2019, more","1994","46"
"Big Creek Summit","338	","Idaho","SNOTEL","Valley","6560","44.62621","-115.79561","170602080402	","November 19, 2025, end of day ","11-20-2025, 10:19 PM PST","0.1","3","3","3","3","14","0","0","0","0","-3.1","5","43","3",,"3.2","3.2","3.5","3.2","0","8.6","1993, 2001","1985","45"
"Big Flat","339	","Utah","SNOTEL","Beaver","10320","38.30183","-112.35672","160300070202	","November 19, 2025, end of day ","11-20-2025, 10:19 PM PST","2.1","75","81","72","75","100","10","11","10","11","-0.7","38","30","19",,"2.8","2.6","2.9","2.8","0","8.2","1999, 2007, 2016, more","2004","48"
"Big Flat","BFL	","California","Cooperator Snow Sensors","Trinity","5030","41.08","-122.942","180102110102	","November 19, 2025, end of day ","11-20-2025, 10:19 PM PST",,,,,,,,,,,,,,,,"0.8","0.2","0.9","0.4","0","6.7","2018, 2019, 2021, more","1994","34"
"Big Goose","931	","Wyoming","SNOTEL","Sheridan","8010","44.57922","-107.20068","100901010103	","November 19, 2025, end of day ","11-20-2025, 10:19 PM PST","0","0","0","0","0","0","0","0","0","0","-1.6","0","28","1","Lowest","1.6","1.6","1.5","1.6","0","3.5","2025","2011","28"
"Big Meadow","340	","Nevada","SNOTEL","Washoe","8240","39.455","-119.9422","160501020505	","November 19, 2025, end of day ","11-20-2025, 10:19 PM PST","1","77","143","67","100","59","4","5","4","5","0","52","21","22",,"1.3","0.7","1.5","1","0","6.6","2013, 2014, 2018, more","1983","43"
"Big Meadows","BIM	","California","Cooperator Snow Sensors","Tulare","7610","36.717","-118.842","180300100403	","November 19, 2025, end of day ","11-20-2025, 10:19 PM PST","3.7","285","462","247","370","100","13","15","13","14","2.7","88","5","29",,"1.3","0.8","1.5","1","0","5.4","2013, 2017, 2021, more","1982, 2000","34"
"Big Pine Creek","BGP	","California","Cooperator Snow Sensors","Inyo","9650","37.128","-118.475","180901020709	","November 19, 2025, end of day ","11-20-2025, 10:19 PM PST","0","0","0","0",,,"0","0","0","0","0","50","17","1","Lowest","1","0.3","0.9","0","0","6.1","2023, 2024, 2025, more","2004","33"
"Big Red Mountain","341	","Oregon","SNOTEL","Jackson","6060","42.05257","-122.85487","171003090301	","November 19, 2025, end of day ","11-20-2025, 10:19 PM PST","0.5","33","42","26","42","50","2","2","2","2","-0.7","36","30","17",,"1.5","1.2","1.9","1.2","0","10","2008, 2013, 2018, more","1984","46"
"Big Sandy Opening","342	","Wyoming","SNOTEL","Sublette","9100","42.6458","-109.25965","140401040101	","November 19, 2025, end of day ","11-20-2025, 10:19 PM PST","2.6","100","93","96","96","100","18","18","18","19","-0.1","49","24","23",,"2.6","2.8","2.7","2.7","0.2","7.3","1999","1985","46"
"Bigelow Camp","343	","Oregon","SNOTEL","Josephine","5130","42.07875","-123.34393","171003090105	","November 19, 2025, end of day ","11-20-2025, 10:19 PM PST","0.6","67","200","50","150","46","4","4","3","4","0.2","56","21","25",,"0.9","0.3","1.2","0.4","0","7.5","2015, 2018, 2021, more","1994","46"
"Billie Creek Divide","344	","Oregon","SNOTEL","Klamath","5280","42.40717","-122.26617","180102030201	","November 19, 2025, end of day ","11-20-2025, 10:19 PM PST","0.1","6","10","5","7","17","0","0","0","0","-1.3","17","40","9",,"1.6","1","1.9","1.4","0","9.4","2018, 2019, 2021, more","1994","48"
"Bird Creek","1155	","Nevada","SNOTEL","White Pine","7540","39.46138","-114.64863","160600081304	","November 19, 2025, end of day ","11-20-2025, 10:19 PM PST","0",,,"0",,,,,"0","0","0","50","8","1","Lowest",,,"0.2","0","0","1.5","2020, 2021, 2025, more","2015","15"
"Bishop Pass","BSH	","California","Cooperator Snow Sensors","Fresno","11220","37.1","-118.557","180300100302	","November 19, 2025, end of day ","11-20-2025, 10:19 PM PST","5.7","219","238","219","238","100","20","21","21","22","3.3","97","2","31","2nd Highest","2.6","2.4","2.6","2.4","0","6.9","2013, 2017, 2018, more","2004","32"
"Bison Lake","345	","Colorado","SNOTEL","Garfield","10950","39.76458","-107.35628","140100011401	","November 19, 2025, end of day ","11-20-2025, 10:19 PM PST","1.1","26","25","25","25","100","4","4","4","4","-3.3","10","37","5",,"4.3","4.4","4.4","4.4","0","14","1989","1985","41"
"Bisson Creek","346	","Montana","SNOTEL","Lake","4880","47.68386","-113.99895","170102120602	","November 19, 2025, end of day ","11-20-2025, 10:19 PM PST","0","0","0","0","0","0","0","0","0","0","-0.9","18","29","1","Lowest","1","0.9","1","0.9","0","3.8","2015, 2016, 2025, more","1996","35"
"Black Bear","347	","Montana","SNOTEL","Gallatin","8160","44.50832","-111.12803","100200070202	","November 19, 2025, end of day ","11-20-2025, 10:19 PM PST","3.4","54","55","54","55","100","8","8","8","8","-2.8","11","49","6",,"6.3","6.2","6.3","6.2","1.2","12.3","1999","1973","55"
"Black Flat-U.M. Ck","348	","Utah","SNOTEL","Sevier","9420","38.6799","-111.59765","140700030101	","November 19, 2025, end of day ","11-20-2025, 10:19 PM PST","0","0","0","0","0","0","0","0","0","0","-0.7","20","36","1","Lowest","0.8","0.7","0.9","0.7","0","2.7","2008, 2018, 2025, more","1985, 2004","45"
"Black Mesa","1185	","Colorado","SNOTEL","Dolores","11580","37.78968","-108.18376","140300020103	","November 19, 2025, end of day ","11-20-2025, 10:19 PM PST","1.7",,,"61","61","100",,,"7","7","-1.1","31","10","5",,,,"2.8","2.8","0.2","5.8","2019","2015","14"
"Black Mountain","1161	","Colorado","SNOTEL","Larimer","8950","40.8879","-105.66404","101900070501	","November 19, 2025, end of day ","11-20-2025, 10:19 PM PST","0.2","9","9","11","11","50","2","2","2","2","-1.6","0","16","1","Lowest","2.3","2.3","1.9","1.8","0.2","3.6","2025","2015","16"
"Black Pine","349	","Montana","SNOTEL","Granite","7170","46.414","-113.43095","170102020203	","November 19, 2025, end of day ","11-20-2025, 10:19 PM PST","0.2","14","14","15","15","29","2","2","2","2","-1.1","7","57","5",,"1.4","1.4","1.3","1.3","0","3","1999, 2001, 2008, more","1975, 1996","61"
"Black Springs","BLS	","California","Cooperator Snow Sensors","Calaveras","6430","38.375","-120.192","180400100303	","November 19, 2025, end of day ","11-20-2025, 10:19 PM PST","0.8","100","400","67","200","80","3","3","3","3","0.4","62","16","23",,"0.8","0.2","1.2","0.4","0","5.1","2018, 2023, 2024, more","1984","40"
"Blackhall Mtn","1119	","Wyoming","SNOTEL","Carbon","9830","41.05623","-106.714","101800020504	","November 19, 2025, end of day ","11-20-2025, 10:19 PM PST","1.6","29","30","33","35","94","5","5","5","5","-3","6","16","1","Lowest","5.5","5.4","4.9","4.6","1.6","8.4","2016, 2025","2010","17"
"Blacks Fork Jct","1162	","Utah","SNOTEL","Summit","8880","40.95814","-110.5828","140401070303	","November 19, 2025, end of day ","11-20-2025, 10:19 PM PST","0.6","67","75","55","75","75","6","6","6","6","-0.2","33","11","6",,"0.9","0.8","1.1","0.8","0","3.1","2018, 2019","2022","16"
"Blacks Mountain","BLA	","California","Cooperator Snow Sensors","Lassen","7060","40.77","-121.198","180200030607	","November 19, 2025, end of day ","11-20-2025, 10:19 PM PST","0.1","14","33","14","20","50","1","1","1","1","-0.4","39","21","12",,"0.7","0.3","0.7","0.5","0","2.9","2013, 2018, 2019, more","2002","34"
"Blacktail Mtn","1144	","Montana","SNOTEL","Flathead","5660","47.98317","-114.35443","170102080302	","November 19, 2025, end of day ","11-20-2025, 10:19 PM PST","0","0","0","0","0","0","0","0","0","0","-1.1","0","16","1","Lowest","1.4","1.1","1.3","1.1","0","2.8","2025","2011","16"
"Blackwall Peak","2G03P	","British Columbia","Cooperator Snow Sensors","	","6345","49.08333","-120.76667","170200070205	","November 19, 2025, end of day ","11-20-2025, 10:19 PM PST","5.9","105","116","113","118","100","17","18","18","19","0.9","65","21","37",,"5.6","5.1","5.2","5","0.3","12.1","1976","1990","58"
"Blackwater","350	","Wyoming","SNOTEL","Park","9840","44.37667","-109.79333","100800120209	","November 19, 2025, end of day ","11-20-2025, 10:19 PM PST","5.5","96","106","96","106","100","19","21","19","21","0.3","55","21","25",,"5.7","5.2","5.7","5.2","0.4","12.6","1999","2017","45"
"Blazed Alder","351	","Oregon","SNOTEL","Clackamas","3660","45.4287","-121.85605","170800010102	","November 19, 2025, end of day ","11-20-2025, 10:19 PM PST","0.2","10","22","9","15","14","1","1","1","1","-1.1","27","33","11",,"2","0.9","2.2","1.3","0","11.7","2018, 2019, 2021, more","1994","45"
"Blewett Pass","352	","Washington","SNOTEL","Chelan","4240","47.35037","-120.6796","170200110501	","November 19, 2025, end of day ","11-20-2025, 10:19 PM PST","0","0","0","0","0","0","0","0","0","0","-1","18","37","1","Lowest","1.1","0.7","1.3","1","0","4.8","2018, 2019, 2025, more","1983","45"
"Blind Bull Sum","353	","Wyoming","SNOTEL","Sublette","8880","42.96413","-110.60992","140401010402	","November 19, 2025, end of day ","11-20-2025, 10:19 PM PST","2.8","70","78","74","82","100","10","11","10","11","-0.6","29","33","14",,"4","3.6","3.8","3.4","0.6","9.3","1999","2017","46"
"Blind Park","354	","South Dakota","SNOTEL","Pennington","6900","44.10772","-103.97688","101201100104	","November 19, 2025, end of day ","11-20-2025, 10:19 PM PST","0","0","0","0","0","0","0","0","0","0","-1.1","14","31","1","Lowest","1.4","1.2","1.3","1.1","0","3.3","2023, 2024, 2025, more","1996, 2008","36"
"Bloods Creek","BLD	","California","Cooperator Snow Sensors","Alpine","7230","38.45","-120.033","180400100301	","November 19, 2025, end of day ","11-20-2025, 10:19 PM PST","0.6","46","150","33","43","75","2","2","2","2","-0.8","41","24","17",,"1.3","0.4","1.8","1.4","0","8.1","2016, 2018, 2024, more","1984","40"
"Bloody Dick","355	","Montana","SNOTEL","Beaverhead","7570","45.16507","-113.50099","100200011002	","November 19, 2025, end of day ","11-20-2025, 10:19 PM PST","0.1","6","6","6","6","25","1","1","1","1","-1.6","2","49","2","2nd Lowest","1.8","1.8","1.7","1.7","0","3.6","1976","1984, 1995","50"
"Blue Canyon","BLC2	","California","Cooperator Snow Sensors","Placer","5260","39.276","-120.708","180201280105	","November 19, 2025, end of day ","11-20-2025, 10:19 PM PST","-0.1","-20",,"-12",,"-50",,,"-1","-1","-0.1","0","43","1","Lowest","0.5","0","0.8","0","-0.1","5.2","2025","1972","43"
"Blue Lakes","356	","California","SNOTEL","Alpine","8060","38.60801","-119.92455","180400120101	","November 19, 2025, end of day ","11-20-2025, 10:19 PM PST","0.7","39","70","29","58","35","2","2","2","2","-0.5","33","31","15",,"1.8","1","2.4","1.2","0","12.1","2018, 2019, 2021, more","1984","46"
"Blue Mountain Spring","357	","Oregon","SNOTEL","Grant","5880","44.24767","-118.51722","170501160104	","November 19, 2025, end of day ","11-20-2025, 10:19 PM PST","0","0","0","0","0","0","0","0","0","0","-1","21","38","1","Lowest","1","1","1.3","1","0","5","2018, 2019, 2025, more","1984, 2024","48"
"Bobs Hollow","1278	","Utah","SNOTEL","Millard","9320","38.94569","-112.15349","160300051401	","November 19, 2025, end of day ","11-20-2025, 10:19 PM PST","0.3",,,"38","43","75",,,"2","2","-0.4","33","7","4",,,,"0.8","0.7","0","2.2","2018, 2021","2022","10"
"Bogus Basin","978	","Idaho","SNOTEL","Boise","6370","43.76377","-116.09685","170501220201	","November 19, 2025, end of day ","11-20-2025, 10:19 PM PST","0","0","0","0","0","0","0","0","0","0","-1.7","12","24","1","Lowest","1.6","1.7","1.8","1.7","0","6.7","2016, 2019, 2025, more","2020","27"
"Bonanza King","BNK	","California","Cooperator Snow Sensors","Trinity","6540","41.083","-122.628","180102110304	","November 19, 2025, end of day ","11-20-2025, 10:19 PM PST","0.6","46","150","32","150","100","2","2","2","2","0.2","57","16","20",,"1.3","0.4","1.9","0.4","0","12.2","2019, 2021, 2023, more","1984","36"
"Bone Springs Div","358	","Wyoming","SNOTEL","Sheridan","9340","44.67881","-107.5811","100800100102	","November 19, 2025, end of day ","11-20-2025, 10:19 PM PST","1.8","45","43","46","45","90","9","9","9","10","-2.2","7","43","4",,"4","4.2","3.9","4","1.1","6.5","2014","2011","46"
"Boss Mountain Mine","1C20P	","British Columbia","Cooperator Snow Sensors","	","4846","52.1","-120.86667","	","November 19, 2025, end of day ","11-20-2025, 10:19 PM PST","4.2","84","88","86","91","100","16","17","17","17","-0.4","45","18","15",,"5","4.8","4.9","4.6","2","9.3","2014","2020","32"
"Bostetter R.S.","359	","Idaho","SNOTEL","Cassia","7530","42.16442","-114.19272","170402120201	","November 19, 2025, end of day ","11-20-2025, 10:19 PM PST","0","0","0","0","0","0","0","0","0","0","-1.2","22","36","1","Lowest","1.2","1.2","1.4","1.2","0","4.4","2016, 2018, 2025, more","1984","46"
"Boulder Mountain","360	","Montana","SNOTEL","Meagher","7890","46.5596","-111.28973","100301030501	","November 19, 2025, end of day ","11-20-2025, 10:19 PM PST","2.4","67","75","69","75","92","10","10","11","11","-0.8","28","35","13",,"3.6","3.2","3.5","3.2","0.3","7.7","1999","2013","48"
"Bourne","361	","Oregon","SNOTEL","Baker","5850","44.83052","-118.18787","170502030101	","November 19, 2025, end of day ","11-20-2025, 10:19 PM PST","0","0","0","0","0","0","0","0","0","0","-1","19","39","1","Lowest","0.9","0.8","1.2","1","0","3.9","2018, 2019, 2025, more","1985","48"
"Bowman Springs","362	","Oregon","SNOTEL","Umatilla","4540","45.36428","-118.46715","170701030401	","November 19, 2025, end of day ","11-20-2025, 10:19 PM PST","0","0","0","0","0",,"0","0","0","0","-0.4","34","32","1","Lowest","0.5","0.2","0.7","0.4","0","3.1","2018, 2019, 2025, more","1986","48"
"Box Canyon","363	","Montana","SNOTEL","Park","6720","45.27178","-110.24899","100700020902	","November 19, 2025, end of day ","11-20-2025, 10:19 PM PST","0","0","0","0","0","0","0","0","0","0","-1.1","4","46","1","Lowest","1.2","1.1","1.2","1.1","0","3.1","2001, 2004, 2025","2017","48"
"Box Creek","364	","Utah","SNOTEL","Sevier","9850","38.50809","-112.01856","160300020106	","November 19, 2025, end of day ","11-20-2025, 10:19 PM PST","0.8",,,"57","80","100",,,"6","6","-0.2","43","27","19",,,,"1.4","1","0","4.7","2007, 2018, 2021, more","2004","47"
"Box Springs","1156	","Utah","SNOTEL","Piute","9230","38.49746","-112.00779","160300020107	","November 19, 2025, end of day ","11-20-2025, 10:19 PM PST","0.6","86","86","86","100","100","8","8","8","8","0","47","9","8",,"0.7","0.7","0.7","0.6","0","1.4","2016, 2018, 2021","2015","16"
"Brackett Creek","365	","Montana","SNOTEL","Gallatin","7370","45.89107","-110.93851","100700030403	","November 19, 2025, end of day ","11-20-2025, 10:19 PM PST","0.1","3","4","4","4","9","0","0","0","0","-2.7","3","31","1","Lowest","3","2.8","2.8","2.8","0.1","6.4","1999, 2025","2018","32"
"Brenda Mines","2F18P	","British Columbia","Cooperator Snow Sensors","	","4767","49.85","-119.98333","170200060808	","November 19, 2025, end of day ","11-20-2025, 10:19 PM PST","0.2","10","12","10","11","22","1","1","1","2","-1.6","3","33","2","2nd Lowest","2","1.6","2.1","1.8","0","4.6","2014","2003","34"
"Brian Head","1154	","Utah","SNOTEL","Iron","10040","37.67994","-112.85674","160300060201	","November 19, 2025, end of day ","11-20-2025, 10:19 PM PST","1.9",,,"86","100","100",,,"10","11","0","50","8","7",,,,"2.2","1.9","0.2","6","2017","2022","15"
"Brighton","366	","Utah","SNOTEL","Salt Lake","8790","40.59936","-111.58167","160202040201	","November 19, 2025, end of day ","11-20-2025, 10:19 PM PST","0","0","0","0","0","0","0","0","0","0","-2.4","0","40","1","Lowest","2.7","2.6","2.7","2.4","0","7.3","2025","2004","40"
"Bristlecone Trail","1111	","Nevada","SNOTEL","Clark","8900","36.31575","-115.69543","150100150206	","November 19, 2025, end of day ","11-20-2025, 10:19 PM PST","1.9","633",,"475",,"90","18","24","17","24","1.9","94","2","17","2nd Highest","0.3","0","0.4","0","0","2.1","2021, 2023, 2024, more","2022","18"
"Brooklyn Lake","367	","Wyoming","SNOTEL","Albany","10250","41.36038","-106.23038","101800100502	","November 19, 2025, end of day ","11-20-2025, 10:19 PM PST","0.6","18","17","18","18","60","2","2","2","2","-2.7","5","43","2","2nd Lowest","3.4","3.5","3.4","3.3","0","9.8","2016","1985","45"
"Brown Duck","368	","Utah","SNOTEL","Duchesne","10570","40.58102","-110.58587","140600030604	","November 19, 2025, end of day ","11-20-2025, 10:19 PM PST","1.8","55","56","50","56","100","8","9","8","9","-1.4","21","38","10",,"3.3","3.2","3.6","3.2","0","11.2","1999, 2016","2004","48"
"Brown Top","1080	","Washington","SNOTEL","Whatcom","5840","48.92753","-121.19717","171100050601	","November 19, 2025, end of day ","11-20-2025, 10:19 PM PST","8.1","94","103","93","99","100","11","11","12","12","-0.1","44","10","8",,"8.6","7.9","8.7","8.2","1.9","22.4","2019","2009","17"
"Brumley","369	","Colorado","SNOTEL","Lake","10570","39.08758","-106.54231","110200010101	","November 19, 2025, end of day ","11-20-2025, 10:19 PM PST","0.4","22","20","24","20","80","3","3","3","4","-1.6","18","38","6",,"1.8","2","1.7","2","0","4.1","1989, 2004, 2007","1991","46"
"Brundage Reservoir","370	","Idaho","SNOTEL","Adams","6280","45.04315","-116.13253","170602100104	","November 19, 2025, end of day ","11-20-2025, 10:19 PM PST","0.2","7","8","7","8","22","1","1","1","1","-2.2","5","38","3",,"2.7","2.4","2.8","2.4","0","6.2","1993, 2001","2005","40"
"Buck Flat","371	","Utah","SNOTEL","Sanpete","9410","39.134","-111.43722","140600090302	","November 19, 2025, end of day ","11-20-2025, 10:19 PM PST","0.8","47","57","50","57","100","4","5","4","5","-0.6","30","34","15",,"1.7","1.4","1.6","1.4","0","4.7","2018, 2019, 2021, more","1996","48"
"Buck Pasture","1192	","Utah","SNOTEL","Summit","9620","40.84456","-110.66068","140401070301	","November 19, 2025, end of day ","11-20-2025, 10:19 PM PST","1.3",,,"68","72","100",,,"8","8","-0.5","31","10","4",,,,"1.9","1.8","0.4","3.3","2016","2022","14"
"Buckboard Flat","1153	","Utah","SNOTEL","San Juan","8920","37.86943","-109.44717","140802030103	","November 19, 2025, end of day ","11-20-2025, 10:19 PM PST","0.2",,,"22","33","100",,,"1","2","-0.4","38","9","4",,,,"0.9","0.6","0","3.3","2016, 2018","2015","14"
"Buckinghorse","1107	","Washington","SNOTEL","Jefferson","4860","47.7086","-123.45747","171100200501	","November 19, 2025, end of day ","11-20-2025, 10:19 PM PST","0","0","0","0","0","0","0","0","0","0","-3.5","24","14","1","Lowest","6.3","3.2","6","3.5","0","26.2","2018, 2019, 2025, more","2009","18"
"Bucks Lake","BKL	","California","Cooperator Snow Sensors","Plumas","5740","39.85","-121.242","180201230702	","November 19, 2025, end of day ","11-20-2025, 10:19 PM PST","0","0","0","0","0","0","0","0","0","0","-0.8","35","27","1","Lowest","1.5","0.4","1.9","0.8","0","12.1","2021, 2023, 2025, more","1984","41"
"Buckskin Joe","938	","Colorado","SNOTEL","Park","11160","39.30378","-106.11316","101900010102	","November 19, 2025, end of day ","11-20-2025, 10:19 PM PST","0","0","0","0","0",,"0","0","0","0","-1.4","4","26","1","Lowest","1.8","1.8","1.6","1.4","0","4.1","1999, 2025","2005","27"
"Buckskin Lower","373	","Nevada","SNOTEL","Humboldt","6920","41.75067","-117.53182","160401090502	","November 19, 2025, end of day ","11-20-2025, 10:19 PM PST","0","0","0","0","0","0","0","0","0","0","-0.4","33","31","1","Lowest","0.6","0.4","0.9","0.4","0","3.6","2019, 2021, 2025, more","1984","46"
"Buffalo Park","913	","Colorado","SNOTEL","Grand","9240","40.22838","-106.5962","140100010706	","November 19, 2025, end of day ","11-20-2025, 10:19 PM PST","0.3","14","12","14","14","75","2","2","2","2","-1.8","3","30","1","Lowest","2.2","2.4","2.1","2.1","0.3","4.2","2001, 2025","2013","31"
"Bug Lake","374	","Utah","SNOTEL","Rich","7980","41.68541","-111.41987","160102010102	","November 19, 2025, end of day ","11-20-2025, 10:19 PM PST","0.6","32","27","27","26","55","3","3","3","3","-1.7","19","39","8",,"1.9","2.2","2.2","2.3","0","6.6","1999, 2001, 2007","1984","48"
"Bumping Ridge","375	","Washington","SNOTEL","Yakima","4600","46.81003","-121.33058","170300020105	","November 19, 2025, end of day ","11-20-2025, 10:19 PM PST","0.4","20","40","18","29","19","1","1","1","1","-1","34","30","11",,"2","1","2.2","1.4","0","9","2016, 2018, 2019, more","1984","45"
"Bunchgrass Mdw","376	","Washington","SNOTEL","Pend Oreille","5020","48.68688","-117.17633","170102160401	","November 19, 2025, end of day ","11-20-2025, 10:19 PM PST","0.3","8","8","8","8","12","1","1","1","1","-3.5","0","44","1","Lowest","3.8","3.9","3.8","3.8","0.3","11.5","2025","1996","44"
"Burgess Junction","377	","Wyoming","SNOTEL","Sheridan","7900","44.78765","-107.52917","100901010202	","November 19, 2025, end of day ","11-20-2025, 10:19 PM PST","0","0","0","0","0","0","0","0","0","0","-2.2","0","45","1","Lowest","2.3","2.2","2.3","2.2","0","4.1","2025","1994","45"
"Burnside Lake","1051	","California","SNOTEL","Alpine","8180","38.71943","-119.8942","160502010107	","November 19, 2025, end of day ","11-20-2025, 10:19 PM PST","0.4","31","200","29","50","25","1","2","1","2","-0.4","45","13","11",,"1.3","0.2","1.4","0.8","0","4.8","2014, 2018, 2021, more","2004","23"
"Burnt Bridge Creek","3C08P	","British Columbia","Cooperator Snow Sensors","	","4360","52.46667","-126.23333","	","November 19, 2025, end of day ","11-20-2025, 10:19 PM PST","6","88","94","91","100","98","18","19","18","18","0","50","13","13",,"6.8","6.4","6.6","6","1.8","15.1","2014","2001","25"
"Burnt Mountain","942	","Washington","SNOTEL","Pierce","4160","47.0444","-121.94032","171100140103	","November 19, 2025, end of day ","11-20-2025, 10:19 PM PST","0","0","0","0","0","0","0","0","0","0","-0.9","31","19","1","Lowest","0.9","0.9","0.9","0.9","0","3.4","2019, 2021, 2025, more","2017","27"
"Burnt Mtn","981	","Montana","SNOTEL","Carbon","5920","45.2401","-109.45961","100700060802	","November 19, 2025, end of day ","11-20-2025, 10:19 PM PST","0","0","0","0","0",,"0","0","0","0","-0.7","20","21","1","Lowest","0.9","0.8","0.8","0.7","0","2.5","2021, 2023, 2025, more","2017","26"
"Burro Mountain","378	","Colorado","SNOTEL","Rio Blanco","9290","39.87504","-107.59902","140500050302	","November 19, 2025, end of day ","11-20-2025, 10:19 PM PST","0.8","38","40","36","40","100","4","5","4","5","-1.2","15","41","7",,"2.1","2","2.2","2","0","8.2","1989, 1990, 2007","1985","48"
"Burroughs Creek","379	","Wyoming","SNOTEL","Fremont","8760","43.69733","-109.67021","100800010102	","November 19, 2025, end of day ","11-20-2025, 10:19 PM PST","0.1",,,"4","4","17",,,"1","1","-2.5","4","45","3",,,,"2.4","2.6","0","5.7","1987, 1999","1995","47"
"Burts Miller Ranch","1135	","Utah","SNOTEL","Summit","7900","40.98492","-110.85075","160101010105	","November 19, 2025, end of day ","11-20-2025, 10:19 PM PST","0","0","0","0","0","0","0","0","0","0","-0.5","19","14","1","Lowest","0.7","0.5","0.7","0.5","0","1.6","2021, 2023, 2025, more","2011","17"
"Butte","380	","Colorado","SNOTEL","Gunnison","10190","38.89435","-106.95327","140200010206	","November 19, 2025, end of day ","11-20-2025, 10:19 PM PST","0.6","32","35","30","33","100","4","4","4","4","-1.2","16","39","6",,"1.9","1.7","2","1.8","0","5.5","1989, 1999, 2007","1986","46"
"Calamity","1109	","Washington","SNOTEL","Skamania","2510","45.90362","-122.21633","170800020603	","November 19, 2025, end of day ","11-20-2025, 10:19 PM PST","0.2","67",,"50",,"50","3","3","3","3","0.2","71","6","13",,"0.3","0","0.4","0","0","2.3","2020, 2021, 2023, more","2024","18"
"Calvert Creek","381	","Montana","SNOTEL","Deer Lodge","6410","45.8838","-113.32553","100200040801	","November 19, 2025, end of day ","11-20-2025, 10:19 PM PST","0.2","25","33","25","33","100","2","2","2","2","-0.4","26","38","12",,"0.8","0.6","0.8","0.6","0","2.9","2008, 2019, 2023, more","1996","51"
"Camas Creek Divide","382	","Idaho","SNOTEL","Elmore","5720","43.26548","-115.3453","170402200101	","November 19, 2025, end of day ","11-20-2025, 10:19 PM PST","0","0","0","0","0","0","0","0","0","0","-0.3","30","24","1","Lowest","0.6","0.3","0.7","0.3","0","3.4","2019, 2023, 2025, more","2020","34"
"Camp Jackson","383	","Utah","SNOTEL","San Juan","8840","37.81333","-109.48723","140802010301	","November 19, 2025, end of day ","11-20-2025, 10:19 PM PST","0.9","82","300","82","100","100","6","7","6","7","0","52","20","21",,"1.1","0.3","1.1","0.9","0","4.9","2012, 2013, 2018, more","1991","41"
"Canyon","384	","Wyoming","SNOTEL","Park","7870","44.71961","-110.51084","100700010705	","November 19, 2025, end of day ","11-20-2025, 10:19 PM PST","0.3","15","17","15","17","50","2","2","2","2","-1.5","4","44","3",,"2","1.8","2","1.8","0","4.5","1993, 1999","1996","46"
"Caples Lake","CAP	","California","Cooperator Snow Sensors","Alpine","8000","38.71079","-120.04141","180201290101	","November 19, 2025, end of day ","11-20-2025, 10:19 PM PST",,,,,,,,,,,,,,,,"1.4","0.4","1.8","1.3","0","6.6","2018, 2019, 2023, more","2004","48"
"Carrot Basin","385	","Montana","SNOTEL","Gallatin","9200","44.96192","-111.29403","100200080105	","November 19, 2025, end of day ","11-20-2025, 10:19 PM PST","4.7","87","89","85","85","100","15","15","15","15","-0.8","32","41","19",,"5.4","5.3","5.5","5.5","1.3","10.3","1976","1973","60"
"Carson Pass","1067	","California","SNOTEL","Alpine","8360","38.6927","-120.0022","180201290101	","November 19, 2025, end of day ","11-20-2025, 10:19 PM PST","1.3","62","108","62","93","93","4","4","4","5","-0.1","48","12","10",,"2.1","1.2","2.1","1.4","0","8.5","2014, 2018, 2019, more","2004","22"
"Casa Vieja Meadows","CSV	","California","Cooperator Snow Sensors","Tulare","8350","36.2","-118.268","180300010401	","November 19, 2025, end of day ","11-20-2025, 10:19 PM PST",,,,,,,,,,,,,,,,"1.3","0.6","1.4","0.7","0","6.6","2021, 2023, 2024, more","2002","35"
"Cascade #2","387	","Colorado","SNOTEL","San Juan","8990","37.65751","-107.80287","140801040201	","November 19, 2025, end of day ","11-20-2025, 10:19 PM PST","0.3","27","75","33","100","100","3","3","3","3","0","54","17","18",,"1.1","0.4","0.9","0.3","0","6.5","2016, 2017, 2020, more","1996","36"
"Cascade Mountain","1039	","Utah","SNOTEL","Utah","7750","40.283","-111.60992","160202030505	","November 19, 2025, end of day ","11-20-2025, 10:19 PM PST","0","0","0","0","0","0","0","0","0","0","-1.4","4","23","1","Lowest","1.4","1.4","1.4","1.4","0","5","2007, 2025","2003","24"
"Cascade Summit","388	","Oregon","SNOTEL","Deschutes","5100","43.59042","-122.0601","170900010301	","November 19, 2025, end of day ","11-20-2025, 10:19 PM PST","0.1","4","5","4","4","9","0","0","0","0","-2.4","16","39","7",,"2.4","2.1","2.8","2.5","0","9.3","2008, 2018, 2019, more","1984","46"
"Casper Mtn.","389	","Wyoming","SNOTEL","Natrona","7940","42.73362","-106.31789","101800070804	","November 19, 2025, end of day ","11-20-2025, 10:19 PM PST","0.3","12","12","12","14","50","2","2","2","2","-1.9","5","42","2","2nd Lowest","2.6","2.4","2.5","2.2","0.1","8.3","2020","1996","44"
"Castle Creek","1130	","Wyoming","SNOTEL","Fremont","8410","43.6748","-109.3774","100800010401	","November 19, 2025, end of day ","11-20-2025, 10:19 PM PST","0","0","0","0","0","0","0","0","0","0","-1","7","15","1","Lowest","1","1","1","1","0","2","2021, 2025","2020","16"
"Castle Peak","1326	","Colorado","SNOTEL","Pitkin","11500","39.00074","-106.83912","140100040202	","November 19, 2025, end of day ","11-20-2025, 10:19 PM PST","0.3",,,"12","12","30",,,"1","1","-2.3","0","2","1","Lowest",,,"2.6","2.6","0.3","4.8","2025","2024","2"
"Castle Valley","390	","Utah","SNOTEL","Iron","9610","37.66098","-112.74093","160300010201	","November 19, 2025, end of day ","11-20-2025, 10:19 PM PST","1.5","136","300","115","250","100","10","10","10","10","0.9","71","14","32",,"1.1","0.5","1.3","0.6","0","6","2017, 2018, 2021, more","2004","46"
"Cave Mountain","1152	","Nevada","SNOTEL","White Pine","10580","39.16337","-114.6133","160600080402	","November 19, 2025, end of day ","11-20-2025, 10:19 PM PST","0.5",,,"56","83","62",,,"4","5","-0.1","36","10","6",,,,"0.9","0.6","0","3.7","2016, 2018, 2019","2022","15"
"Cayuse Pass","1085	","Washington","SNOTEL","Pierce","5260","46.86956","-121.53434","171100140301	","November 19, 2025, end of day ","11-20-2025, 10:19 PM PST","0.2","4","5","4","5","8","0","0","0","0","-4.2","11","18","3",,"4.9","4.2","5.2","4.4","0","13.1","2008, 2019","2017","20"
"Cedar Kiteen","4B18P	","British Columbia","Cooperator Snow Sensors","	","2992","55.15","-128.7","	","November 19, 2025, end of day ","11-20-2025, 10:19 PM PST","2.4","65","96","65","80","100","9","10","9","9","-0.6","42","15","10",,"3.7","2.5","3.7","3","0","11.2","2016","2004","25"
"Cedar Pass","391	","California","SNOTEL","Modoc","7060","41.58216","-120.30253","180200020603	","November 19, 2025, end of day ","11-20-2025, 10:19 PM PST","0.4","22","33","21","25","17","2","2","2","2","-1.2","23","37","10",,"1.8","1.2","1.9","1.6","0","6","2018, 2019, 2021, more","1984","48"
"Celista Mountain","1F06P	","British Columbia","Cooperator Snow Sensors","	","5030","51.4","-118.98333","	","November 19, 2025, end of day ","11-20-2025, 10:19 PM PST","4.8","64","65","67","72","100","12","11","12","12","-1.9","20","17","5",,"7.5","7.4","7.2","6.7","4.1","11.8","2022, 2023","2009","21"
"Chagoopa Plateau","CHP	","California","Cooperator Snow Sensors","Tulare","10360","36.497","-118.442","180300010203	","November 19, 2025, end of day ","11-20-2025, 10:19 PM PST","0","0","0","0","0",,"0","0","0","0","-1.7","19","31","1","Lowest","2","2","1.9","1.7","0","8.5","2021, 2024, 2025, more","2002","38"
"Chalender","1139	","Arizona","SNOTEL","Coconino","7020","35.26238","-112.06221","150602020305	","November 19, 2025, end of day ","11-20-2025, 10:19 PM PST","0.4","400",,"400",,"67","10","12","10","12","0.4","94","2","15","2nd Highest","0.1","0","0.1","0","0","0.5","2021, 2023, 2024, more","2022","17"
"Chalk Creek #1","392	","Utah","SNOTEL","Summit","9160","40.85464","-111.04765","160201010301	","November 19, 2025, end of day ","11-20-2025, 10:19 PM PST","0.9","26","26","25","26","69","3","4","3","4","-2.5","6","45","4",,"3.4","3.5","3.6","3.4","0.2","9.4","1999, 2016","1985","48"
"Chalk Creek #2","393	","Utah","SNOTEL","Summit","8200","40.88529","-111.06954","160201010301	","November 19, 2025, end of day ","11-20-2025, 10:19 PM PST","0.6","29","32","26","29","43","4","4","3","3","-1.5","11","43","5",,"2.1","1.9","2.3","2.1","0.1","5.9","2016","1984","48"
"Chamita","394	","New Mexico","SNOTEL","Rio Arriba","8370","36.95606","-106.65723","130201020204	","November 19, 2025, end of day ","11-20-2025, 10:19 PM PST","0.5","50","62","62","100","100","5","5","5","5","0","50","24","21",,"1","0.8","0.8","0.5","0","3.9","2007, 2012, 2021, more","1991","47"
"Chapman Tunnel","1101	","Colorado","SNOTEL","Pitkin","10090","39.2621","-106.62944","140100040504	","November 19, 2025, end of day ","11-20-2025, 10:19 PM PST","0.6","26","25","26","25","100","4","4","4","4","-1.8","6","18","2","2nd Lowest","2.3","2.4","2.3","2.4","0.3","3.6","2016","2015","19"
"Chemult Alternate","395	","Oregon","SNOTEL","Klamath","4850","43.22625","-121.80662","180102010201	","November 19, 2025, end of day ","11-20-2025, 10:19 PM PST","0.2","40","67","29","50","100","2","2","2","2","-0.2","40","28","19",,"0.5","0.3","0.7","0.4","0","3.8","2019, 2021, 2023, more","1994","46"
"Chena Lakes","1260	","Alaska","SNOTEL","Fairbanks North Star","500","64.75793","-147.21823","190803060901	","November 19, 2025, end of day ","11-20-2025, 10:19 PM PST","0.5",,,"31","28","100",,,"9","9","-1.3","0","6","1","Lowest",,,"1.6","1.8","0.5","2","2025","2020","6"
"Chepeta","396	","Utah","SNOTEL","Duchesne","10490","40.77458","-110.0105","140600031202	","November 19, 2025, end of day ","11-20-2025, 10:19 PM PST","1.5","56","62","56","62","100","9","10","9","10","-0.9","11","40","6",,"2.7","2.4","2.7","2.4","0","11.3","1999, 2016","2004","45"
"Chicago Ridge","1312	","Montana","SNOTEL","Sanders","5700","48.06224","-115.69748","170102131301	","November 19, 2025, end of day ","11-20-2025, 10:19 PM PST","2.9",,,"57","60","66",,,"8","8","-1.9","0","4","1","Lowest",,,"5.1","4.8","2.9","7.9","2025","2024","4"
"Chilkoot Meadow","CHM	","California","Cooperator Snow Sensors","Madera","7230","37.41","-119.49","180400061101	","November 19, 2025, end of day ","11-20-2025, 10:19 PM PST",,,,,,,,,,,,,,,,"1.4","0.2","1.5","0.4","0","9","2017, 2018, 2023, more","2004","34"
"Chilliwack River","1D17P	","British Columbia","Cooperator Snow Sensors","	","5318","49.01667","-121.7","171100010206	","November 19, 2025, end of day ","11-20-2025, 10:19 PM PST",,,,,,,,,,,,,,,,"7.4","6.4","7.4","6.4","0","19.6","2008","2009","28"
"Chisana","1093	","Alaska","SNOTEL","Valdez-Cordova","3320","62.06947","-142.04919","190803010305	","November 19, 2025, end of day ","11-20-2025, 10:19 PM PST","1.6","160","133","133","133","100","41","42","38","40","0.4","76","5","14",,"1","1.2","1.2","1.2","0","3.2","2016","2022","18"
"Chocolate Gulch","895	","Idaho","SNOTEL","Blaine","6310","43.7685","-114.41812","170402190301	","November 19, 2025, end of day ","11-20-2025, 10:19 PM PST","0.7","78","78","70","78","88","5","6","5","6","-0.2","41","20","11",,"0.9","0.9","1","0.9","0","3","2016, 2018, 2019, more","1996","33"
"Cinnabar Park","1046	","Wyoming","SNOTEL","Albany","9670","41.23843","-106.23101","101800100503	","November 19, 2025, end of day ","11-20-2025, 10:19 PM PST","0.6","16","15","18","18","86","3","3","3","3","-2.8","5","22","2","2nd Lowest","3.7","3.9","3.3","3.4","0.2","5.6","2016","2010","23"
"Clackamas Lake","398	","Oregon","SNOTEL","Clackamas","3400","45.09658","-121.75443","170900110301	","November 19, 2025, end of day ","11-20-2025, 10:19 PM PST","0","0","0","0","0","0","0","0","0","0","-0.4","31","32","1","Lowest","0.9","0.3","0.9","0.4","0","5.3","2019, 2021, 2025, more","1996","46"
"Clayton Springs","983	","Utah","SNOTEL","Garfield","10010","37.9725","-111.83355","160300020501	","November 19, 2025, end of day ","11-20-2025, 10:19 PM PST","2.4","141","171","141","200","100","19","21","19","21","1.2","84","5","22",,"1.7","1.4","1.7","1.2","0","8.3","2007, 2016, 2021, more","2000","26"
"Clear Creek #1","399	","Utah","SNOTEL","Utah","8960","39.86671","-111.28363","160202020102	","November 19, 2025, end of day ","11-20-2025, 10:19 PM PST",,,,,,,,,,,,,,,,"1.6","1.2","1.9","1.3","0","6.1","2007, 2019, 2021, more","1982","47"
"Clear Creek #2","400	","Utah","SNOTEL","Utah","7850","39.89275","-111.25154","160202020102	","November 19, 2025, end of day ","11-20-2025, 10:19 PM PST","0","0","0","0","0","0","0","0","0","0","-1.4","6","45","1","Lowest","1.3","1.4","1.5","1.4","0","4","2007, 2021, 2025, more","1984","48"
"Clear Lake","401	","Oregon","SNOTEL","Wasco","3810","45.18832","-121.6916","170703060901	","November 19, 2025, end of day ","11-20-2025, 10:19 PM PST","0.2","33","100","29","67","100","2","2","2","2","-0.1","42","27","20",,"0.6","0.2","0.7","0.3","0","3.9","2018, 2019, 2021, more","1996","46"
"Cloud Peak Reservoir","402	","Wyoming","SNOTEL","Johnson","9830","44.40328","-107.06074","100902060301	","November 19, 2025, end of day ","11-20-2025, 10:19 PM PST","2.4","73","75","75","77","100","13","13","13","14","-0.7","19","39","9",,"3.3","3.2","3.2","3.1","0.4","6.6","1978","1994","48"
"Clover Meadow","403	","Montana","SNOTEL","Madison","8770","45.01788","-111.8456","100200070803	","November 19, 2025, end of day ","11-20-2025, 10:19 PM PST","1.8","50","53","50","51","90","9","10","9","10","-1.7","9","44","4",,"3.6","3.4","3.6","3.5","1.1","6","1987","1985","48"
"Cochetopa Pass","1059	","Colorado","SNOTEL","Saguache","10020","38.16273","-106.5988","130100040203	","November 19, 2025, end of day ","11-20-2025, 10:19 PM PST","0.2","29","33","29","33","67","4","4","4","4","-0.4","19","18","4",,"0.7","0.6","0.7","0.6","0","2.1","2007, 2023","2024","22"
"Cold Springs","405	","Wyoming","SNOTEL","Fremont","9640","43.27676","-109.44585","100800010702	","November 19, 2025, end of day ","11-20-2025, 10:19 PM PST","0.7","41","39","39","39","100","8","8","8","8","-1.1","14","37","6",,"1.7","1.8","1.8","1.8","0","5.4","1999, 2007","1986","43"
"Cold Springs Camp","406	","Oregon","SNOTEL","Klamath","5940","42.53305","-122.17683","180102030202	","November 19, 2025, end of day ","11-20-2025, 10:19 PM PST","0.2","13","33","11","25","22","1","1","1","1","-0.6","32","31","12",,"1.5","0.6","1.9","0.8","0","9.2","2008, 2018, 2021, more","1994","45"
"Coldfoot","958	","Alaska","SNOTEL","Yukon-Koyukuk","1070","67.25333","-150.183","190901010604	","November 19, 2025, end of day ","11-20-2025, 10:19 PM PST","1","56","67","59","67","100","14","14","14","14","-0.5","20","25","6",,"1.8","1.5","1.7","1.5","0","4.5","2012","2004","31"
"Cole Canyon","982	","Wyoming","SNOTEL","Crook","5930","44.48632","-104.41057","101202030302	","November 19, 2025, end of day ","11-20-2025, 10:19 PM PST","0","0","0","0","0",,"0","0","0","0","-0.6","40","16","1","Lowest","0.8","0.8","0.7","0.6","0","2.9","2023, 2024, 2025, more","2000","26"
"Cole Creek","407	","Montana","SNOTEL","Carbon","7910","45.19405","-109.34548","100700060801	","November 19, 2025, end of day ","11-20-2025, 10:19 PM PST","0","0","0","0","0","0","0","0","0","0","-3.4","2","51","1","Lowest","3.6","3.4","3.5","3.4","0","8.3","2023, 2025","1993","52"
"Columbine","408	","Colorado","SNOTEL","Jackson","9170","40.39591","-106.60437","101800010102	","November 19, 2025, end of day ","11-20-2025, 10:19 PM PST","0.9","31","30","31","30","100","3","4","3","4","-2.1","9","42","4",,"2.9","3","2.9","3","0.3","6.6","2007","1984","46"
"Columbine Pass","409	","Colorado","SNOTEL","Montrose","9160","38.41819","-108.38313","140200050202	","November 19, 2025, end of day ","11-20-2025, 10:19 PM PST","1.6","94","114","89","100","100","8","9","8","9","0","54","19","20",,"1.7","1.4","1.8","1.6","0","5.1","2007, 2008, 2017, more","1986","40"
"Columbus Basin","904	","Colorado","SNOTEL","La Plata","10780","37.44146","-108.02468","140801050101	","November 19, 2025, end of day ","11-20-2025, 10:19 PM PST","1.8","44","53","47","62","100","7","7","7","7","-1.1","32","22","11",,"4.1","3.4","3.8","2.9","0","11","1999, 2007","2000","32"
"Combination","410	","Montana","SNOTEL","Granite","5620","46.46523","-113.39358","170102020401	","November 19, 2025, end of day ","11-20-2025, 10:19 PM PST","0.1","20","20","20","20","25","2","2","2","2","-0.4","32","37","16",,"0.5","0.5","0.5","0.5","0","2.1","2016, 2019, 2023, more","1973","54"
"Cool Creek","411	","Idaho","SNOTEL","Clearwater","6310","46.76361","-115.29528","170603070702	","November 19, 2025, end of day ","11-20-2025, 10:19 PM PST","0.3","6","6","6","6","12","1","1","1","1","-4.7","0","41","1","Lowest","5","4.9","5.1","5","0.3","13.6","2025","1984","41"
"Cooper Lake","959	","Alaska","SNOTEL","Kenai Peninsula","1150","60.39027","-149.6936","190203021205	","November 19, 2025, end of day ","11-20-2025, 10:19 PM PST","1.6","94","107","80","84","100","10","11","10","11","-0.3","48","24","21",,"1.7","1.5","2","1.9","0","5.9","2014, 2018, 2019, more","1982","45"
"Copeland Lake","412	","Colorado","SNOTEL","Boulder","8570","40.20733","-105.5695","101900050202	","November 19, 2025, end of day ","11-20-2025, 10:19 PM PST","0.2","40","50","33","50","67","3","3","3","3","-0.2","43","26","15",,"0.5","0.4","0.6","0.4","0","2.1","2008, 2012, 2019, more","1985","45"
"Copper Bottom","413	","Montana","SNOTEL","Lewis And Clark","5200","47.05678","-112.595","170102030103	","November 19, 2025, end of day ","11-20-2025, 10:19 PM PST","0","0","0","0","0",,"0","0","0","0","-0.6","19","39","1","Lowest","0.8","0.6","0.9","0.6","0","3.4","2019, 2023, 2025, more","1996","48"
"Copper Camp","414	","Montana","SNOTEL","Lewis And Clark","6980","47.08158","-112.72955","170102030103	","November 19, 2025, end of day ","11-20-2025, 10:19 PM PST","0.3","9","12","9","10","16","1","1","1","1","-2.8","0","48","1","Lowest","3.5","2.6","3.3","3.1","0.3","8","2025","1984","48"
"Copper Mountain","415	","Colorado","SNOTEL","Summit","10500","39.48917","-106.17154","140100020302	","November 19, 2025, end of day ","11-20-2025, 10:19 PM PST","0.5","20","23","22","23","100","3","3","3","3","-1.7","11","43","4",,"2.5","2.2","2.3","2.2","0","4.5","1978, 1990","1991","48"
"Corduroy Flat","1209	","Nevada","SNOTEL","White Pine","8640","38.99651","-115.42478","160600121206	","November 19, 2025, end of day ","11-20-2025, 10:19 PM PST","0",,,,,"0",,,"0","0","0","100","1","1",,,,"0","0","0","0","2023, 2024, 2025","2023, 2024, 2025","3"
"Coronado Trail","416	","Arizona","SNOTEL","Apache","8400","33.80418","-109.15352","150400040501	","November 19, 2025, end of day ","11-20-2025, 10:19 PM PST","0.7","350",,"350",,"100","17","22","17","21","0.7","91","5","42",,"0.2","0","0.2","0","0","1.2","2020, 2021, 2024, more","2000","46"
"Corral","1236	","Utah","SNOTEL","Carbon","8210","39.65795","-110.37906","140600070903	","November 19, 2025, end of day ","11-20-2025, 10:19 PM PST","0.8",,,"160","267","89",,,"9","11","0.5","75","4","10",,,,"0.5","0.3","0","1.7","2019, 2021, 2023, more","2013","13"
"Corral Canyon","417	","Nevada","SNOTEL","Elko","8440","40.27551","-115.54017","160401030401	","November 19, 2025, end of day ","11-20-2025, 10:19 PM PST","0","0","0","0","0","0","0","0","0","0","-1.3","19","39","1","Lowest","1.4","1","1.7","1.3","0","6.3","2008, 2019, 2025, more","2022","48"
"Corral Pass","418	","Washington","SNOTEL","Pierce","5810","47.01872","-121.46464","171100140307	","November 19, 2025, end of day ","11-20-2025, 10:19 PM PST","0.5","14","17","13","15","16","1","1","1","1","-2.9","5","42","2","2nd Lowest","3.5","2.9","3.8","3.4","0.4","10.3","2008","1994","44"
"Cottonwood Creek","419	","Wyoming","SNOTEL","Lincoln","7710","42.6459","-110.81482","170401050102	","November 19, 2025, end of day ","11-20-2025, 10:19 PM PST","2.5","83","83","83","86","100","11","11","11","11","-0.4","40","26","15",,"3","3","3","2.9","0.3","6","1993, 1999","1995, 2010","43"
"Cottonwood Lakes","CWD	","California","Cooperator Snow Sensors","Inyo","10180","36.483","-118.177","180901030404	","November 19, 2025, end of day ","11-20-2025, 10:19 PM PST","4","400","1,000","400","667","100","27","30","24","28","3.4","96","3","44",,"1","0.4","1","0.6","-0.7","6.4","1983","2004","46"
"Couch Summit","1306	","Idaho","SNOTEL","Camas","6770","43.51762","-114.80214","170501130204	","November 19, 2025, end of day ","11-20-2025, 10:19 PM PST","0.4",,,"44","36","44",,,"2","2","-0.7","25","4","2","2nd Lowest",,,"0.9","1.1","0","2","2023","2022","5"
"Cougar Mountain","420	","Washington","SNOTEL","King","3210","47.27666","-121.67138","171100130202	","November 19, 2025, end of day ","11-20-2025, 10:19 PM PST","0","0","0","0","0","0","0","0","0","0","-0.8","32","31","1","Lowest","1","0.4","1.2","0.8","0","7.6","2021, 2023, 2025, more","1994","45"
"County Line","422	","Oregon","SNOTEL","Umatilla","4840","45.19107","-118.55015","170601040202	","November 19, 2025, end of day ","11-20-2025, 10:19 PM PST","0","0","0","0","0",,"0","0","0","0","-0.1","47","25","1","Lowest","0.3","0.1","0.3","0.1","0","2.1","2021, 2023, 2025, more","1994","46"
"Cozy Cove","423	","Idaho","SNOTEL","Valley","5410","44.28846","-115.65508","170501200403	","November 19, 2025, end of day ","11-20-2025, 10:19 PM PST","0.1","14","17","11","12","100","1","1","1","1","-0.7","30","32","13",,"0.7","0.6","0.9","0.8","0","4","2018, 2019, 2023, more","1984","45"
"Crab Creek","424	","Idaho","SNOTEL","Clark","6870","44.437","-111.99384","170402140108	","November 19, 2025, end of day ","11-20-2025, 10:19 PM PST","0","0","0","0","0","0","0","0","0","0","-1.3","9","41","1","Lowest","1.2","1.2","1.4","1.3","0","4.2","2016, 2023, 2025, more","2022","45"
"Crater Meadows","425	","Idaho","SNOTEL","Clearwater","5960","46.56394","-115.28903","170603070502	","November 19, 2025, end of day ","11-20-2025, 10:19 PM PST","0.5","10","10","10","9","24","1","1","1","1","-5.2","0","42","1","Lowest","5.1","5.2","5.2","5.7","0.5","13.2","2025","1984","42"
"Crazyman Flat","1010	","Oregon","SNOTEL","Klamath","6190","42.6381","-120.94917","180102020101	","November 19, 2025, end of day ","11-20-2025, 10:19 PM PST","0.1","11","25","10","25","50","1","1","1","1","-0.3","29","18","8",,"0.9","0.4","1","0.4","0","3.8","2019, 2021, 2023, more","2005","25"
"Creamers Field","1302	","Alaska","SNOTEL","Fairbanks North Star","440","64.86534","-147.73617","190803060907	","November 19, 2025, end of day ","11-20-2025, 10:19 PM PST","0.6",,,"50","60","86",,,"11","10","-0.4","25","4","2","2nd Lowest",,,"1.2","1","0.4","2.2","2021","2024","5"
"Crescent Lake #1","2002	","Minnesota","SCAN","Sherburne","980","45.41667","-93.95","070102030503	","November 19, 2025, end of day ","11-20-2025, 10:19 PM PST",,,,,,,,,,,,,,,,,,"0.6","0.4","0","2.7","2009, 2013, 2015, more","2002","21"
"Crosho","426	","Colorado","SNOTEL","Rio Blanco","8960","40.16749","-107.05769","140500010106	","November 19, 2025, end of day ","11-20-2025, 10:19 PM PST","0.2","13","12","14","12","40","2","2","2","2","-1.4","15","34","5",,"1.5","1.7","1.4","1.6","0","4","1989, 2004, 2016, more","1995","40"
"Crow Creek","1045	","Wyoming","SNOTEL","Albany","8320","41.22824","-105.38571","101900090104	","November 19, 2025, end of day ","11-20-2025, 10:19 PM PST","0.1","9","9","11","14","25","1","1","1","2","-0.6","18","19","5",,"1.1","1.1","0.9","0.7","0","3","2012, 2020, 2021, more","2009","23"
"Crowder Flat","977	","California","SNOTEL","Modoc","5180","41.89318","-120.75202","180102040103	","November 19, 2025, end of day ","11-20-2025, 10:19 PM PST","0.1","100",,"100",,"50","2","2","2","2","0.1","81","6","19",,"0.1","0","0.1","0","0","0.8","2020, 2021, 2023, more","2022","27"
"Crystal Lake","427	","Montana","SNOTEL","Fergus","6130","46.78936","-109.51202","100401030204	","November 19, 2025, end of day ","11-20-2025, 10:19 PM PST","0","0","0","0","0","0","0","0","0","0","-2","2","47","1","Lowest","2.4","2.2","2.2","2","0","7.2","1988, 2025","2009","48"
"Css Lab","428	","California","SNOTEL","Nevada","6880","39.32565","-120.36807","180201250602	","November 19, 2025, end of day ","11-20-2025, 10:19 PM PST","0.6","43","75","32","60","75","2","2","2","2","-0.4","45","24","20",,"1.4","0.8","1.9","1","0","9.8","2018, 2019, 2021, more","1983","43"
"Culebra #2","430	","Colorado","SNOTEL","Costilla","10570","37.20939","-105.19988","130100020902	","November 19, 2025, end of day ","11-20-2025, 10:19 PM PST","0.4","21","22","21","22","100","3","3","3","3","-1.4","9","43","5",,"1.9","1.8","1.9","1.8","0","4.9","1989","1996","47"
"Cumbres Trestle","431	","Colorado","SNOTEL","Conejos","10030","37.01877","-106.45275","130201020203	","November 19, 2025, end of day ","11-20-2025, 10:19 PM PST","1.4","38","40","40","45","100","5","5","5","5","-1.7","22","36","11",,"3.7","3.5","3.5","3.1","0","9.3","1989, 1999","1994","46"
"Currant Creek","432	","Utah","SNOTEL","Wasatch","7920","40.35747","-111.08993","140600040401	","November 19, 2025, end of day ","11-20-2025, 10:19 PM PST","0","0","0","0","0","0","0","0","0","0","-0.7","23","37","1","Lowest","0.7","0.7","0.9","0.7","0","3.6","2018, 2019, 2025, more","1984","48"
"Dahl Creek","1303	","Alaska","SNOTEL","Northwest Arctic","250","66.94517","-156.90318","190503021508	","November 19, 2025, end of day ","11-20-2025, 10:19 PM PST","1.2",,,"52","50","100",,,"10","9","-1.2","0","4","1","Lowest",,,"2.3","2.4","1.2","3.2","2025","2023","4"
"Daisy Peak","919	","Montana","SNOTEL","Meagher","7590","46.66858","-110.33022","100402010106	","November 19, 2025, end of day ","11-20-2025, 10:19 PM PST","0","0","0","0","0",,"0","0","0","0","-1.7","7","29","1","Lowest","1.8","1.9","1.7","1.7","0","4.3","1999, 2016, 2025","2009","31"
"Daly Creek","433	","Montana","SNOTEL","Ravalli","5780","46.18367","-113.8533","170102050901	","November 19, 2025, end of day ","11-20-2025, 10:19 PM PST","0.2","14","15","14","15","100","2","2","2","2","-1.1","9","42","5",,"1.4","1.3","1.4","1.3","0","3.6","2008, 2016, 2023, more","1985","46"
"Daly Lake","434	","Oregon","SNOTEL","Linn","3690","44.52147","-122.08718","170900060101	","November 19, 2025, end of day ","11-20-2025, 10:19 PM PST","0.2","20","50","18","50","50","1","1","1","1","-0.2","44","26","19",,"1","0.4","1.1","0.4","0","9.1","2018, 2019, 2021, more","1994","46"
"Dana Meadows","DAN	","California","Cooperator Snow Sensors","Tuolumne","9810","37.897","-119.257","180400090102	","November 19, 2025, end of day ","11-20-2025, 10:19 PM PST",,,,,,,,,,,,,,,,"2.8","2.6","3.5","2.6","0","10.5","2007, 2008, 2019, more","1982","38"
"Daniels-Strawberry","435	","Utah","SNOTEL","Wasatch","8010","40.2953","-111.25677","140600040101	","November 19, 2025, end of day ","11-20-2025, 10:19 PM PST",,,,,,,,,,,,,,,,"1.2","1","1.3","1","0","5.2","2016, 2019, 2021, more","1982","47"
"Darkhorse Lake","436	","Montana","SNOTEL","Beaverhead","8930","45.17368","-113.5846","100200040301	","November 19, 2025, end of day ","11-20-2025, 10:19 PM PST","2.9","50","51","52","52","100","8","9","9","9","-2.7","7","43","4",,"5.8","5.7","5.6","5.6","1.8","9.8","1987","1995","46"
"Deadman Creek","437	","Montana","SNOTEL","Meagher","6440","46.79279","-110.67545","100301030401	","November 19, 2025, end of day ","11-20-2025, 10:19 PM PST","0","0","0","0","0","0","0","0","0","0","-1.3","3","57","1","Lowest","1.4","1.4","1.3","1.3","0","2.5","1990, 2016, 2025","2019, 2020, 2022, more","59"
"Deadman Creek","DDM	","California","Cooperator Snow Sensors","Tuolumne","9310","38.332","-119.653","180400100203	","November 19, 2025, end of day ","11-20-2025, 10:19 PM PST","0.8","47","80","50","100","80","3","3","3","3","0","51","18","18",,"1.7","1","1.6","0.8","0","7.8","2012, 2016, 2023, more","2004","36"
"Deadman Hill","438	","Colorado","SNOTEL","Larimer","10240","40.80572","-105.77018","101900070502	","November 19, 2025, end of day ","11-20-2025, 10:19 PM PST","1.2","31","32","32","34","100","6","6","6","5","-2.3","4","46","3",,"3.9","3.8","3.8","3.5","0.2","9.8","1999","1985","48"
"Deadwood Summit","439	","Idaho","SNOTEL","Valley","6990","44.54492","-115.56386","170501200401	","November 19, 2025, end of day ","11-20-2025, 10:19 PM PST","1.6","37","40","34","36","70","4","4","4","4","-2.9","13","40","7",,"4.3","4","4.7","4.5","0.1","12.6","1993","1984","46"
"Decline Creek","1319	","Washington","SNOTEL","Snohomish","4480","48.23594","-121.455","171100060403	","November 19, 2025, end of day ","11-20-2025, 10:19 PM PST","0.2",,,"5","6","8",,,"0","0","-3.4","17","6","2","2nd Lowest",,,"4.2","3.6","0","11","2019","2024","7"
"Deer Park","923	","Wyoming","SNOTEL","Fremont","9690","42.59076","-108.90273","100800030101	","November 19, 2025, end of day ","11-20-2025, 10:19 PM PST","2.2","71","73","71","73","100","12","13","12","13","-0.8","26","21","7",,"3.1","3","3.1","3","0.6","6.9","2016","2004","28"
"Deer Pass","1345	","Washington","SNOTEL","Skagit","3360","48.3325","-121.72133","171100080103	","November 19, 2025, end of day ","11-20-2025, 10:19 PM PST","0",,,"0","0","0",,,"0","0","-1.2","0","3","1","Lowest",,,"1.1","1.2","0","2.2","2025","2022","3"
"Derr.","440	","Oregon","SNOTEL","Wheeler","5850","44.4465","-119.93012","170703040401	","November 19, 2025, end of day ","11-20-2025, 10:19 PM PST","0.1","14","25","9","20","33","1","1","1","1","-0.4","29","33","12",,"0.7","0.4","1.1","0.5","0","5.7","2019, 2021, 2023, more","1984","46"
"Devils Postpile","DPO	","California","Cooperator Snow Sensors","Madera","7550","37.629","-119.085","180400060402	","November 19, 2025, end of day ","11-20-2025, 10:19 PM PST",,,,,,,,,,,,,,,,,,"0.6","0","0","4.1","2018, 2020, 2023, more","2022","14"
"Diamond Lake","442	","Oregon","SNOTEL","Douglas","5280","43.18787","-122.14003","171003010204	","November 19, 2025, end of day ","11-20-2025, 10:19 PM PST","0.1","11","50","9","33","11","1","1","1","1","-0.2","39","28","17",,"0.9","0.2","1.1","0.3","0","6.6","2018, 2019, 2021, more","1994","45"
"Diamond Peak","443	","Nevada","SNOTEL","Eureka","8030","39.56361","-115.84421","160600051503	","November 19, 2025, end of day ","11-20-2025, 10:19 PM PST","0","0","0","0","0","0","0","0","0","0","-0.3","43","25","1","Lowest","0.4","0.2","0.5","0.3","0","2.4","2019, 2021, 2025, more","2000","43"
"Dills Camp","444	","Utah","SNOTEL","Sanpete","9240","39.04554","-111.46875","140700020201	","November 19, 2025, end of day ","11-20-2025, 10:19 PM PST","0.6","55","60","50","55","100","4","5","4","5","-0.5","39","29","19",,"1.1","1","1.2","1.1","0","3.6","2016, 2018, 2019, more","1984","47"
"Disaster Peak","445	","Nevada","SNOTEL","Humboldt","6260","41.96737","-118.18934","160402010201	","November 19, 2025, end of day ","11-20-2025, 10:19 PM PST","0","0",,"0",,"0","0","0","0","0","0","52","22","1","Lowest","0.3","0","0.5","0","0","3.3","2021, 2023, 2025, more","1988","45"
"Dismal Swamp","446	","California","SNOTEL","Modoc","7370","41.99127","-120.18033","171200070304	","November 19, 2025, end of day ","11-20-2025, 10:19 PM PST","0.2","9","10","7","9","13","1","1","1","1","-2.1","11","41","5",,"2.2","2","2.7","2.3","0","10.1","1995, 2018, 2019, more","1984","46"
"Divide","448	","Montana","SNOTEL","Madison","7770","44.79317","-112.05645","100200030102	","November 19, 2025, end of day ","11-20-2025, 10:19 PM PST","0.3","16","17","17","18","100","2","3","2","3","-1.4","4","49","3",,"1.9","1.8","1.8","1.7","0","4.7","2016","2000","51"
"Divide Peak","449	","Wyoming","SNOTEL","Carbon","8700","41.30399","-107.15255","140500030203	","November 19, 2025, end of day ","11-20-2025, 10:19 PM PST","1.2","40","41","40","43","100","6","6","6","6","-1.6","9","42","4",,"3","2.9","3","2.8","0.2","6.4","2016","1985","46"
"Dollarhide Summit","450	","Idaho","SNOTEL","Blaine","8390","43.6025","-114.67417","170402190201	","November 19, 2025, end of day ","11-20-2025, 10:19 PM PST","2.6","90","93","76","87","100","10","11","10","10","-0.4","34","30","15",,"2.9","2.8","3.4","3","0","7.7","1993, 2016","1981","45"
"Dome Lake","451	","Wyoming","SNOTEL","Sheridan","8890","44.57462","-107.29537","100901010102	","November 19, 2025, end of day ","11-20-2025, 10:19 PM PST","0.9","35","33","32","33","90","6","7","6","7","-1.8","6","45","4",,"2.6","2.7","2.8","2.7","0.5","5.1","2015","1995","48"
"Dome Mountain","1A19P	","British Columbia","Cooperator Snow Sensors","	","5801","53.61667","-121.01667","	","November 19, 2025, end of day ","11-20-2025, 10:19 PM PST","5.9","95","87","100","97","100","17","17","17","18","-0.2","35","14","8",,"6.2","6.8","5.9","6.1","2.2","9.3","2016","2011","21"
"Donkey Reservoir","452	","Utah","SNOTEL","Wayne","9800","38.2084","-111.47412","140700030305	","November 19, 2025, end of day ","11-20-2025, 10:19 PM PST","0.9","64","82","69","100","100","11","11","11","11","0","50","21","19",,"1.4","1.1","1.3","0.9","0","6.1","2007, 2016, 2021, more","1986","41"
"Dorsey Basin","453	","Nevada","SNOTEL","Elko","7900","40.89343","-115.21104","160401010604	","November 19, 2025, end of day ","11-20-2025, 10:19 PM PST","0","0","0","0","0","0","0","0","0","0","-1.4","21","38","1","Lowest","1.1","1.2","1.3","1.4","0","3.9","2019, 2021, 2025, more","1984","48"
"Draw Creek","454	","Nevada","SNOTEL","Elko","7300","41.661","-115.3234","160401010403	","November 19, 2025, end of day ","11-20-2025, 10:19 PM PST","0.1","17","33","14","25","33","1","1","1","1","-0.3","36","28","14",,"0.6","0.3","0.7","0.4","0","3.4","2018, 2019, 2021, more","1984","43"
"Dry Bread Pond","455	","Utah","SNOTEL","Cache","8290","41.41289","-111.5377","160102030101	","November 19, 2025, end of day ","11-20-2025, 10:19 PM PST","0.5","25","28","22","28","71","3","3","2","3","-1.3","13","42","7",,"2","1.8","2.3","1.8","0","8.5","2001, 2007, 2016","1984","48"
"Dry Creek","1243	","Nevada","SNOTEL","Elko","6560","40.8638","-115.22014","160401010601	","November 19, 2025, end of day ","11-20-2025, 10:19 PM PST","0",,,"0","0","0",,,"0","0","-0.4","25","10","1","Lowest",,,"0.4","0.4","0","1.8","2019, 2021, 2025, more","2022","13"
"Dry Fork","906	","Utah","SNOTEL","Salt Lake","7190","40.56533","-112.17343","160202040106	","November 19, 2025, end of day ","11-20-2025, 10:19 PM PST","0","0","0","0","0","0","0","0","0","0","-1.2","10","29","1","Lowest","1.5","1.2","1.5","1.2","0","4.2","2004, 2007, 2025, more","1997","32"
"Dry Lake","457	","Colorado","SNOTEL","Routt","8240","40.5337","-106.7814","140500010409	","November 19, 2025, end of day ","11-20-2025, 10:19 PM PST","0.8","29","30","29","30","100","4","4","3","4","-1.9","13","40","6",,"2.8","2.7","2.8","2.7","0","6.4","1980, 1981","1995, 1996","46"
"Dungeness","943	","Washington","SNOTEL","Clallam","3990","47.8722","-123.07879","171100200301	","November 19, 2025, end of day ","11-20-2025, 10:19 PM PST","0","0","0","0","0","0","0","0","0","0","-0.4","37","18","1","Lowest","0.7","0.2","0.8","0.4","0","5.1","2018, 2019, 2025, more","2017","28"
"Dupuyer Creek","458	","Montana","SNOTEL","Teton","5740","48.06341","-112.7573","100302010501	","November 19, 2025, end of day ","11-20-2025, 10:19 PM PST","0","0","0","0","0","0","0","0","0","0","-0.7","21","34","1","Lowest","0.9","0.8","0.9","0.7","0","3.3","2009, 2024, 2025, more","1986, 1993, 2019","43"
"EF Blacks Fork GS","1163	","Utah","SNOTEL","Summit","9360","40.88472","-110.54056","140401070302	","November 19, 2025, end of day ","11-20-2025, 10:19 PM PST","0.6","46","46","43","46","55","4","5","5","5","-0.7","20","13","3",,"1.3","1.3","1.4","1.3","0.2","3.6","2016, 2021","2023","16"
"East Boulder Mine","1105	","Montana","SNOTEL","Sweet Grass","6310","45.50381","-110.08019","100700020701	","November 19, 2025, end of day ","11-20-2025, 10:19 PM PST","0","0","0","0","0","0","0","0","0","0","-0.8","12","16","1","Lowest","1","0.9","0.8","0.8","0","2.3","2008, 2023, 2025","2017","18"
"East Creek","2D08P	","British Columbia","Cooperator Snow Sensors","	","6575","50.63333","-116.91667","170101090000	","November 19, 2025, end of day ","11-20-2025, 10:19 PM PST","9","102","103","105","108","100","24","23","24","24","0.7","59","19","26",,"8.8","8.7","8.6","8.3","1.6","20","2003","1990","45"
"East Rim Divide","460	","Wyoming","SNOTEL","Sublette","8010","43.13097","-110.2023","170401030203	","November 19, 2025, end of day ","11-20-2025, 10:19 PM PST","0.4","31","31","29","29","80","3","4","3","4","-1","20","33","8",,"1.3","1.3","1.4","1.4","0","4.1","1999","1985","41"
"East Willow Creek","461	","Utah","SNOTEL","Grand","8310","39.31213","-109.53179","140600060205	","November 19, 2025, end of day ","11-20-2025, 10:19 PM PST","0.5","71","125","71","100","100","6","6","5","6","0","54","19","20",,"0.7","0.4","0.7","0.5","0","2.4","2017, 2018, 2021, more","2015","40"
"Easy Pass","998	","Washington","SNOTEL","Whatcom","5280","48.85933","-121.43895","171100010101	","November 19, 2025, end of day ","11-20-2025, 10:19 PM PST","12.7","119","144","106","117","95","13","12","13","13","1.8","62","7","11",,"10.7","8.8","12","10.9","3.2","29.9","2008","2009","17"
"Ebbetts Pass","462	","California","SNOTEL","Alpine","8660","38.5497","-119.80468","160502010104	","November 19, 2025, end of day ","11-20-2025, 10:19 PM PST","1.1","44","69","35","46","50","3","3","3","3","-1.3","32","33","16",,"2.5","1.6","3.1","2.4","0","10.8","2016, 2018, 2019, more","1983","48"
"Echo Lake","936	","Colorado","SNOTEL","Clear Creek","10660","39.65539","-105.59358","101900020801	","November 19, 2025, end of day ","11-20-2025, 10:19 PM PST","0","0","0","0","0","0","0","0","0","0","-1.2","0","28","1","Lowest","1.6","1.4","1.5","1.2","0","3.7","2025","2006","28"
"Echo Peak","463	","California","SNOTEL","El Dorado","7650","38.849","-120.0795","160501010303	","November 19, 2025, end of day ","11-20-2025, 10:19 PM PST","0.9","33","60","30","41","82","2","2","2","2","-1.3","36","30","17",,"2.7","1.5","3","2.2","0","10.9","2018, 2019, 2021, more","1994","46"
"Eilertson Meadows","464	","Oregon","SNOTEL","Baker","5510","44.86887","-118.11387","170502030404	","November 19, 2025, end of day ","11-20-2025, 10:19 PM PST","0","0","0","0","0","0","0","0","0","0","-0.7","22","36","1","Lowest","0.7","0.7","0.9","0.7","0","3.3","2018, 2019, 2025, more","2024","46"
"El Diente Peak","465	","Colorado","SNOTEL","Dolores","10210","37.78607","-108.02235","140300020202	","November 19, 2025, end of day ","11-20-2025, 10:19 PM PST","1.1","65","69","69","73","100","7","8","7","8","-0.4","44","23","17",,"1.7","1.6","1.6","1.5","0","6.5","2001, 2005, 2008, more","1994","40"
"Elbow Lake","910	","Washington","SNOTEL","Whatcom","3050","48.69092","-121.90893","171100040401	","November 19, 2025, end of day ","11-20-2025, 10:19 PM PST","0","0","0","0","0","0","0","0","0","0","-1","27","23","1","Lowest","2.5","1","2.5","1","0","9.4","2019, 2023, 2025, more","2009","31"
"Elk Butte","466	","Idaho","SNOTEL","Clearwater","5680","46.83998","-116.12233","170603080701	","November 19, 2025, end of day ","11-20-2025, 10:19 PM PST","0.4","12","17","12","15","33","1","1","1","1","-2.2","5","41","3",,"3.2","2.4","3.4","2.6","0","11.1","2001, 2008","1996","43"
"Elk Cabin","921	","New Mexico","SNOTEL","Santa Fe","8210","35.7073","-105.80584","130202010102	","November 19, 2025, end of day ","11-20-2025, 10:19 PM PST","0.1","33","100","33","100","100","3","3","3","3","0","52","15","13",,"0.3","0.1","0.3","0.1","0","1.5","2017, 2021, 2024, more","1997","30"
"Elk Peak Alt","1316	","Montana","SNOTEL","Meagher","7820","46.47617","-110.72148","100301030104	","November 19, 2025, end of day ","11-20-2025, 10:19 PM PST","2.4",,,"89","92","100",,,"14","14","-0.2","0","3","1","Lowest",,,"2.7","2.6","2.4","3.2","2025","2023","3"
"Elk Ridge","1323	","Utah","SNOTEL","San Juan","8540","37.82308","-109.77156","140802010402	","November 19, 2025, end of day ","11-20-2025, 10:19 PM PST","0.6",,,"75","75","100",,,"19","19","-0.2","0","2","1","Lowest",,,"0.8","0.8","0.6","0.9","2025","2024","2"
"Elk River","467	","Colorado","SNOTEL","Routt","8710","40.84758","-106.96861","140500010206	","November 19, 2025, end of day ","11-20-2025, 10:19 PM PST","0.8","40","38","42","44","100","4","4","4","4","-1","19","39","9",,"2","2.1","1.9","1.8","0","5","2001","1996","48"
"Elkhart Park G.S.","468	","Wyoming","SNOTEL","Sublette","9410","43.00657","-109.75893","140401020103	","November 19, 2025, end of day ","11-20-2025, 10:19 PM PST","1.6","70","67","70","73","100","12","12","12","12","-0.6","20","37","10",,"2.3","2.4","2.3","2.2","0","5.6","1987, 1999","1985","46"
"Elkhead Divide","1252	","Colorado","SNOTEL","Routt","8780","40.79637","-107.10113","140500010601	","November 19, 2025, end of day ","11-20-2025, 10:19 PM PST","0.8",,,"53","50","89",,,"4","4","-0.8","22","8","3",,,,"1.5","1.6","0.2","2.6","2016","2022","10"
"Elliot Ridge","1120	","Colorado","SNOTEL","Summit","10550","39.8638","-106.42473","140100020602	","November 19, 2025, end of day ","11-20-2025, 10:19 PM PST","0.8","30","30","31","30","100","4","3","4","3","-1.9","0","17","1","Lowest","2.7","2.7","2.6","2.7","0.8","4.2","2025","2010","17"
"Elmendorf Field","1332	","Alaska","SNOTEL","Anchorage","170","61.24777","-149.82331","190204010404	","November 19, 2025, end of day ","11-20-2025, 10:19 PM PST","0.6",,,"55","55","100",,,"33","33","-0.5","0","2","1","Lowest",,,"1.1","1.1","0.6","1.6","2025","2024","2"
"Elwood Pass","1325	","Colorado","SNOTEL","Rio Grande","11680","37.40563","-106.64136","130100020302	","November 19, 2025, end of day ","11-20-2025, 10:19 PM PST","2.3",,,"61","61","100",,,"15","15","-1.5","0","2","1","Lowest",,,"3.8","3.8","2.3","5.2","2025","2024","2"
"Emery Creek","469	","Montana","SNOTEL","Flathead","4340","48.43412","-113.93725","170102090703	","November 19, 2025, end of day ","11-20-2025, 10:19 PM PST","0","0","0","0","0","0","0","0","0","0","-1.2","16","42","1","Lowest","1.5","1","1.5","1.2","0","5.1","2008, 2014, 2025, more","1996","50"
"Emigrant Springs","470	","Oregon","SNOTEL","Umatilla","3780","45.55808","-118.45385","170701030501	","November 19, 2025, end of day ","11-20-2025, 10:19 PM PST","0","0",,"0",,,"0","0","0","0","0","58","20","1","Lowest","0.4","0","0.4","0","0","3.5","2022, 2023, 2025, more","1994","46"
"Emigrant Summit","471	","Idaho","SNOTEL","Bear Lake","7390","42.36055","-111.56085","160102020206	","November 19, 2025, end of day ","11-20-2025, 10:19 PM PST","1.2","63","63","57","57","92","5","5","5","5","-0.9","27","33","11",,"1.9","1.9","2.1","2.1","0","6.4","2001","1984","45"
"Evening Star","472	","Wyoming","SNOTEL","Park","9040","44.65258","-109.78422","100700060301	","November 19, 2025, end of day ","11-20-2025, 10:19 PM PST","3.8","73","73","73","72","100","12","13","13","14","-1.5","28","32","13",,"5.2","5.2","5.2","5.3","0.7","11.9","1987, 1999","2017","44"
"Exit Glacier","1092	","Alaska","SNOTEL","Kenai Peninsula","360","60.18957","-149.6228","190202020508	","November 19, 2025, end of day ","11-20-2025, 10:19 PM PST","2.2",,,"183","183","100",,,"14","14","1","79","4","11",,,,"1.2","1.2","0","3.1","2018, 2019, 2020, more","2022","15"
"Fallen Leaf","473	","California","SNOTEL","El Dorado","6250","38.93403","-120.0545","160501010401	","November 19, 2025, end of day ","11-20-2025, 10:19 PM PST","0.1","50",,"33",,"100",,,"1","1","0.1","73","13","31",,"0.2","0","0.3","0","0","2.6","2021, 2023, 2024, more","1982","45"
"Farewell Gap","FRW	","California","Cooperator Snow Sensors","Tulare","10250","36.412","-118.583","180300070202	","November 19, 2025, end of day ","11-20-2025, 10:19 PM PST",,,,,,,,,,,,,,,,,,"1.9","0.8","0","7.5","2013, 2016, 2024, more","2002","16"
"Farmington","474	","Utah","SNOTEL","Davis","7920","40.97462","-111.80975","160201020502	","November 19, 2025, end of day ","11-20-2025, 10:19 PM PST","1.2","32","33","31","35","100","3","3","3","3","-2.2","19","39","9",,"3.7","3.6","3.9","3.4","0","13.3","1995, 2001, 2018","2004","48"
"Farmington Lower","1054	","Utah","SNOTEL","Davis","6850","40.992","-111.81702","160201020502	","November 19, 2025, end of day ","11-20-2025, 10:19 PM PST","0.3","19","23","19","23","60","1","2","1","2","-1","18","19","5",,"1.6","1.3","1.6","1.3","0","6.3","2007, 2018","2003","23"
"Farnsworth Lake","475	","Utah","SNOTEL","Sevier","9620","38.77246","-111.67662","160300030405	","November 19, 2025, end of day ","11-20-2025, 10:19 PM PST","0.5","16","15","16","15","71","2","2","2","2","-2.9","7","43","3",,"3.1","3.4","3.1","3.4","0.2","6.5","1999","1998","46"
"Fawn Creek","476	","Nevada","SNOTEL","Elko","7040","41.82098","-116.10153","170501040304	","November 19, 2025, end of day ","11-20-2025, 10:19 PM PST","0","0","0","0","0","0","0","0","0","0","-1.3","24","35","1","Lowest","1.3","1.2","1.5","1.3","0","6.6","2019, 2021, 2025, more","1984","46"
"Fielding Lake","1268	","Alaska","SNOTEL","Valdez-Cordova","3000","63.2026","-145.63442","190803040302	","November 19, 2025, end of day ","11-20-2025, 10:19 PM PST","2.6",,,"90","108","100",,,"24","25","0.2","64","5","8",,,,"2.9","2.4","0.3","7.9","2016","2019","12"
"Fifteenmile","1314	","Oregon","SNOTEL","Hood River","5970","45.35265","-121.53","170701050503	","November 19, 2025, end of day ","11-20-2025, 10:19 PM PST","0.4",,,"11","29","13",,,"1","1","-1","0","4","1","Lowest",,,"3.6","1.4","0.4","11.1","2025","2024","4"
"Fish Ck","1305	","Idaho","SNOTEL","Blaine","6380","43.55545","-113.71931","170402210401	","November 19, 2025, end of day ","11-20-2025, 10:19 PM PST",,,,,,,,,,,,,,,,,,"0.6","0.4","0","1.5","2023","2022","4"
"Fish Creek","477	","Oregon","SNOTEL","Harney","7710","42.70993","-118.63219","171200030107	","November 19, 2025, end of day ","11-20-2025, 10:19 PM PST","0","0","0","0","0","0","0","0","0","0","-2","15","40","1","Lowest","1.9","1.4","2.6","2","0","8.2","2018, 2019, 2025, more","1984","47"
"Fish Lake","478	","Washington","SNOTEL","Kittitas","3430","47.53565","-121.08553","170300010102	","November 19, 2025, end of day ","11-20-2025, 10:19 PM PST","0.3","12","17","12","17","23","1","1","1","1","-1.5","19","35","7",,"2.4","1.8","2.5","1.8","0","8.9","2016, 2018, 2019, more","1984","43"
"Fish Lake Utah","1149	","Utah","SNOTEL","Sevier","8790","38.50455","-111.76693","140700030108	","November 19, 2025, end of day ","11-20-2025, 10:19 PM PST","0.6","100","150","120","150","100","7","7","6","6","0.2","67","6","11",,"0.6","0.4","0.5","0.4","0","2.4","2021, 2023, 2024, more","2015","16"
"Fish Lk.","479	","Oregon","SNOTEL","Jackson","4660","42.3801","-122.34943","171003070801	","November 19, 2025, end of day ","11-20-2025, 10:19 PM PST","0.2","25","100","22","67","100","2","2","2","2","-0.1","45","25","18",,"0.8","0.2","0.9","0.3","0","8.7","2018, 2019, 2021, more","1994","45"
"Fisher Creek","480	","Montana","SNOTEL","Park","9110","45.06235","-109.94488","100700060202	","November 19, 2025, end of day ","11-20-2025, 10:19 PM PST","4.4","66","71","68","71","98","11","12","11","12","-1.8","19","49","11",,"6.7","6.2","6.5","6.2","1.3","14.2","1987","2017","60"
"Five Points Lake","481	","Utah","SNOTEL","Duchesne","10920","40.71785","-110.46721","140600030701	","November 19, 2025, end of day ","11-20-2025, 10:19 PM PST","2.2","71","69","69","73","100","11","11","11","11","-0.8","24","35","11",,"3.1","3.2","3.2","3","0.1","9.6","2016","2004","46"
"Flattop Mtn.","482	","Montana","SNOTEL","Flathead","6290","48.80225","-113.85713","170102070501	","November 19, 2025, end of day ","11-20-2025, 10:19 PM PST","5.2","81","90","78","90","95","11","11","11","11","-0.6","36","37","20",,"6.4","5.8","6.7","5.8","1","16.1","1999","1984","57"
"Floe Lake","2C14P	","British Columbia","Cooperator Snow Sensors","	","6923","51.05","-116.13333","170101070000	","November 19, 2025, end of day ","11-20-2025, 10:19 PM PST","6.6","93","89","93","92","100","20","19","20","20","-0.6","42","19","14",,"7.1","7.4","7.1","7.2","2.3","11.4","1992","1999","32"
"Flower Mountain","1285	","Alaska","SNOTEL","Haines","2540","59.39617","-136.28123","190103031206	","November 19, 2025, end of day ","11-20-2025, 10:19 PM PST","11.3",,,"246","332","100",,,"41","43","7.9","100","1","9","Highest",,,"4.6","3.4","1.7","11.3","2018","2025","9"
"Fool Creek","1186	","Colorado","SNOTEL","Grand","11130","39.86866","-105.86765","140100010203	","November 19, 2025, end of day ","11-20-2025, 10:19 PM PST","1.8",,,"49","49","100",,,"8","8","-1.9","7","14","2","2nd Lowest",,,"3.7","3.7","1.5","5","2016","2013","15"
"Forestdale Creek","1049	","California","SNOTEL","Alpine","8050","38.68245","-119.9597","160502010301	","November 19, 2025, end of day ","11-20-2025, 10:19 PM PST","0.8","44","80","42","67","89","2","2","2","2","-0.4","41","14","10",,"1.8","1","1.9","1.2","0","7.6","2016, 2018, 2019, more","2004","23"
"Forni Ridge","FRN	","California","Cooperator Snow Sensors","El Dorado","7490","38.805","-120.213","180201290302	","November 19, 2025, end of day ","11-20-2025, 10:19 PM PST","1.2","67","150","60","100","92","3","3","3","3","0","53","19","20",,"1.8","0.8","2","1.2","0","7.7","2017, 2018, 2021, more","1994","39"
"Fort Valley","1121	","Arizona","SNOTEL","Coconino","7360","35.26773","-111.74479","150200150102	","November 19, 2025, end of day ","11-20-2025, 10:19 PM PST","1",,,"1,000",,"100","32","42","29","38","1","100","1","18","Highest","0","0","0.1","0","0","1","2022, 2023, 2024, more","2025","18"
"Four Trees","FOR	","California","Cooperator Snow Sensors","Plumas","5170","39.813","-121.321","180201210801	","November 19, 2025, end of day ","11-20-2025, 10:19 PM PST","-0.1","-9","-33","-9","-50","-50","0","0","0","0","-0.3","0","40","1","Lowest","1.1","0.3","1.1","0.2","-0.1","8.5","2025","1994","40"
"Fourmile Lake","483	","Oregon","SNOTEL","Klamath","5970","42.43933","-122.2288","180102030202	","November 19, 2025, end of day ","11-20-2025, 10:19 PM PST","0.3","16","25","13","19","33","1","1","1","1","-1.3","24","36","11",,"1.9","1.2","2.3","1.6","0","10.9","2008, 2018, 2019, more","1984","47"
"Franklin Basin","484	","Idaho","SNOTEL","Franklin","8140","42.0505","-111.6012","160102020501	","November 19, 2025, end of day ","11-20-2025, 10:19 PM PST","1.6","62","57","55","57","94","5","6","5","5","-1.2","24","36","10",,"2.6","2.8","2.9","2.8","0.2","8.6","2016","1984","47"
"Fredonyer Peak","1277	","California","SNOTEL","Lassen","7220","40.68799","-120.60805","180800030304	","November 19, 2025, end of day ","11-20-2025, 10:19 PM PST","0.6",,,"100","200","75",,,"4","5","0.3","56","5","6",,,,"0.6","0.3","0","2","2019, 2021, 2023, more","2024","10"
"Fremont Pass","485	","Colorado","SNOTEL","Summit","11310","39.38014","-106.19784","140100020301	","November 19, 2025, end of day ","11-20-2025, 10:19 PM PST","0.5","15","15","15","15","100","2","2","2","3","-2.8","0","46","1","Lowest","3.3","3.4","3.3","3.3","0.5","7.2","2025","2005","46"
"Frisco Divide","486	","New Mexico","SNOTEL","Catron","8010","33.73687","-108.94327","150400040303	","November 19, 2025, end of day ","11-20-2025, 10:19 PM PST","0.3","300",,"300",,"100","9","10","9","10","0.3","91","5","40",,"0.1","0","0.1","0","0","0.9","2020, 2023, 2024, more","2000","46"
"Frohner Meadow","487	","Montana","SNOTEL","Jefferson","6520","46.43545","-112.19277","100301011305	","November 19, 2025, end of day ","11-20-2025, 10:19 PM PST","0","0","0","0","0","0","0","0","0","0","-1.1","9","49","1","Lowest","1.1","1.1","1.2","1.1","0","2.9","2008, 2023, 2025, more","1973, 1985","54"
"Frostbite Bottom","641	","Alaska","SNOTEL","Matanuska-Susitna","2690","61.74699","-149.26769","190205051202	","November 19, 2025, end of day ","11-20-2025, 10:19 PM PST","1.1",,,"31","32","100",,,"5","6","-2.3","0","6","1","Lowest",,,"3.6","3.4","1.1","5.5","2025","2021","6"
"Fry","488	","Arizona","SNOTEL","Coconino","7220","35.07356","-111.84477","150602020501	","November 19, 2025, end of day ","11-20-2025, 10:19 PM PST","0.9","225",,"300",,"100","11","12","11","12","0.9","87","7","40",,"0.4","0","0.3","0","0","2.1","2020, 2021, 2023, more","1991","46"
"Fry Canyon","1262	","Nevada","SNOTEL","Elko","6790","41.58008","-115.9364","160401020101	","November 19, 2025, end of day ","11-20-2025, 10:19 PM PST","0",,,"0","0","0",,,"0","0","-0.5","36","8","1","Lowest",,,"0.4","0.5","0","1.1","2019, 2021, 2025, more","2015","12"
"GBRC HQ","1221	","Utah","SNOTEL","Sanpete","8800","39.32019","-111.48827","160300040307	","November 19, 2025, end of day ","11-20-2025, 10:19 PM PST","0.5",,,"42","62","100",,,"3","4","-0.3","31","10","5",,,,"1.2","0.8","0","3.2","2018, 2019, 2021","2022","14"
"GBRC Meadows","1222	","Utah","SNOTEL","Sanpete","9850","39.30229","-111.45383","160300040307	","November 19, 2025, end of day ","11-20-2025, 10:19 PM PST","0.5",,,"28","28","100",,,"2","2","-1.3","0","14","1","Lowest",,,"1.8","1.8","0.5","3.8","2025","2022","14"
"Galena","489	","Idaho","SNOTEL","Blaine","7470","43.87722","-114.6725","170402190101	","November 19, 2025, end of day ","11-20-2025, 10:19 PM PST","1.1","58","55","52","55","69","6","7","6","7","-0.9","21","35","8",,"1.9","2","2.1","2","0","5.3","1993","1984","44"
"Galena AK","429	","Alaska","SNOTEL","Yukon-Koyukuk","340","64.69662","-156.71497","190902051104	","November 19, 2025, end of day ","11-20-2025, 10:19 PM PST","1.3",,,"87","93","100",,,"19","19","-0.1","43","5","4",,,,"1.5","1.4","1","2.7","2018","2023","8"
"Galena Summit","490	","Idaho","SNOTEL","Blaine","8780","43.87497","-114.71363","170402190101	","November 19, 2025, end of day ","11-20-2025, 10:19 PM PST","3.7","119","116","116","109","100","17","18","17","18","0.3","64","17","29",,"3.1","3.2","3.2","3.4","0","5.6","1993","2017","45"
"Gallegos Peak","491	","New Mexico","SNOTEL","Taos","9460","36.19418","-105.55742","130201010502	","November 19, 2025, end of day ","11-20-2025, 10:19 PM PST","0.2","13","17","15","20","29","2","2","2","2","-0.8","18","38","9",,"1.5","1.2","1.3","1","0","3.5","2016, 2017, 2021, more","1991, 1996","46"
"Garden City Summit","1114	","Utah","SNOTEL","Cache","7680","41.9215","-111.4693","160102010106	","November 19, 2025, end of day ","11-20-2025, 10:19 PM PST","0.6","27","26","27","30","100","3","3","3","3","-1.4","12","15","3",,"2.2","2.3","2.2","2","0","4.6","2016","2022","17"
"Gardiner Creek","05AA809	","Alberta","Cooperator Snow Sensors","	","6463","49.3611","-114.5158","	","November 19, 2025, end of day ","11-20-2025, 10:19 PM PST",,,,,,,,,,,,,,,,,,"3.6","3.6","3.6","3.6","2024","2024","1"
"Gardner Peak","1066	","Utah","SNOTEL","Washington","8320","37.40083","-113.45988","150100080701	","November 19, 2025, end of day ","11-20-2025, 10:19 PM PST","1.9","238","238","190","211","100","14","14","14","15","1","90","3","20",,"0.8","0.8","1","0.9","0","2.8","2007, 2017, 2018, more","2015","22"
"Garfield R.S.","492	","Idaho","SNOTEL","Blaine","6580","43.6104","-113.9308","170402210301	","November 19, 2025, end of day ","11-20-2025, 10:19 PM PST","0.1","17","20","17","20","100","1","1","1","1","-0.4","33","31","14",,"0.6","0.5","0.6","0.5","0","2.3","2016, 2018, 2019, more","1982, 1984","46"
"Garita Peak","1173	","New Mexico","SNOTEL","Rio Arriba","10100","36.00469","-106.54805","130202020201	","November 19, 2025, end of day ","11-20-2025, 10:19 PM PST","0.1",,,"25",,"33",,,"1","1","0.1","56","5","6",,,,"0.4","0","0","2.2","2019, 2020, 2021, more","2024","10"
"Garver Creek","918	","Montana","SNOTEL","Lincoln","4250","48.97523","-115.81915","170101030202	","November 19, 2025, end of day ","11-20-2025, 10:19 PM PST","0","0","0","0","0","0","0","0","0","0","-1.6","5","55","1","Lowest","1.8","1.8","1.7","1.6","0","5.1","1999, 2008, 2025, more","1996","58"
"Gem Pass","GEM	","California","Cooperator Snow Sensors","Mono","10630","37.78","-119.17","180901010301	","November 19, 2025, end of day ","11-20-2025, 10:19 PM PST",,,,,,,,,,,,,,,,"3","1.9","3.8","2.2","0","15.6","2007, 2011, 2014, more","1983","36"
"George Creek","1151	","Utah","SNOTEL","Box Elder","8960","41.91562","-113.41154","170402100401	","November 19, 2025, end of day ","11-20-2025, 10:19 PM PST","1.5","68","58","60","65","88","6","6","6","7","-0.8","27","12","4",,"2.2","2.6","2.5","2.3","0","6","2016","2021","16"
"Gerber Reservoir","945	","Oregon","SNOTEL","Klamath","4880","42.2062","-121.1334","180102040508	","November 19, 2025, end of day ","11-20-2025, 10:19 PM PST","0.2","200",,"200",,"100","8","8","8","8","0.2","74","8","19",,"0.1","0","0.1","0","0","0.5","2019, 2021, 2023, more","2001, 2009, 2022","28"
"Gianelli Meadow","GNL	","California","Cooperator Snow Sensors","Tuolumne","8400","38.205","-119.892","180400100501	","November 19, 2025, end of day ","11-20-2025, 10:19 PM PST","1.3","48","68","45","65","93","3","3","3","3","-0.7","41","21","15",,"2.7","1.9","2.9","2","0","12.5","2016, 2018, 2024, more","2004","35"
"Giant Forest","GNF	","California","Cooperator Snow Sensors","Tulare","6550","36.562","-118.765","180300070402	","November 19, 2025, end of day ","11-20-2025, 10:19 PM PST","-0.2","-100",,"-40",,,"-1","-1","-1","-1","-0.2","0","44","1","Lowest","0.2","0","0.5","0","-0.2","3","2025","1972, 1984","44"
"Gin Flat","GIN	","California","Cooperator Snow Sensors","Tuolumne","7030","37.767","-119.773","180400090701	","November 19, 2025, end of day ","11-20-2025, 10:19 PM PST",,,,,,,,,,,,,,,,"1.5","0.8","2","1.7","0","7.7","2008, 2013, 2019, more","1982","33"
"Giveout","493	","Idaho","SNOTEL","Bear Lake","6940","42.4132","-111.1663","160102010401	","November 19, 2025, end of day ","11-20-2025, 10:19 PM PST","0.1","17","17","12","17","33","1","1","1","1","-0.5","25","34","12",,"0.6","0.6","0.8","0.6","0","3.3","2016, 2019, 2023, more","1984","45"
"Glacial Ridge","2050	","Minnesota","SCAN","Polk","1140","47.71667","-96.26667","090203030503	","November 19, 2025, end of day ","11-20-2025, 10:19 PM PST",,,,,,,,,,,,,,,,,,"0.1","0","0","0.4","2014, 2015, 2017, more","2003","13"
"Glen Cove","1057	","Colorado","SNOTEL","Teller","11410","38.87602","-105.07605","110200030201	","November 19, 2025, end of day ","11-20-2025, 10:19 PM PST","0.2","18","40","22","50","50","3","4","3","4","-0.2","43","13","7",,"1.1","0.5","0.9","0.4","0","3.7","2007, 2012, 2014","2009","22"
"Golconda","1195	","Nevada","SNOTEL","Humboldt","6630","40.88358","-117.58812","160401080102	","November 19, 2025, end of day ","11-20-2025, 10:19 PM PST","0.1",,,"25","50","100",,,"1","1","-0.1","36","10","6",,,,"0.4","0.2","0","1.4","2019, 2020, 2021, more","2015","15"
